Brand,Latitude,Longitude,Nationality,Purpose,Number,Town
Wild Atlantic Way,52.34662,-9.6879,British,Business Trips,0,Abbeydorney.Co..Kerry
Irelands Ancient East,52.38618,-9.2971,British,Business Trips,936,Abbeyfeale.Co..Limerick.
Irelands Ancient East,52.91528,-7.3479,British,Business Trips,0,Abbeyleix.Co..Laois.
Wild Atlantic Way,53.96195,-10.0153,British,Business Trips,0,Achill.Island.Co..Mayo.
Irelands Ancient East,54.03646,-8.8967,British,Business Trips,0,Aclare.Co.Sligo.
Irelands Ancient East,52.56402,-8.7912,British,Business Trips,2528,Adare.Co..Limerick.
Wild Atlantic Way,51.69712,-9.7296,British,Business Trips,0,Adrigole.Co..Cork.
Irelands Ancient East,53.38813,-9.071,British,Business Trips,0,Annadown.Co..Galway.
Wild Atlantic Way,52.15108,-10.0568,British,Business Trips,2373,Annascaul.Co..Kerry.
Irelands Ancient East,52.14059,-7.2719,British,Business Trips,0,Annestown.Co..Waterford.
Wild Atlantic Way,53.09718,-9.6563,British,Business Trips,0,Aran.Islands.Co..Galway.
Irelands Ancient East,53.67106,-7.6962,British,Business Trips,0,Ardagh.Co.Longford
Wild Atlantic Way,54.76715,-8.4093,British,Business Trips,0,Ardara.Co..Donegal.
Irelands Ancient East,53.85762,-6.54,British,Business Trips,0,Ardee.Co.Louth.
Wild Atlantic Way,52.32695,-9.7807,British,Business Trips,0,Ardfert.Co..Kerry.
Irelands Ancient East,51.95107,-7.7253,British,Business Trips,0,Ardmore.Co..Waterford.
Irelands Ancient East,54.07634,-8.1125,British,Business Trips,0,Arigna.Co..Roscommon.
Irelands Ancient East,52.79769,-6.1599,British,Business Trips,0,Arklow.Co..Wicklow.
Wild Atlantic Way,54.98744,-8.5351,British,Business Trips,0,Arranmore.Co..Donegal.
Irelands Ancient East,52.24202,-6.9514,British,Business Trips,0,Arthurstown.Co..Wexford.
Irelands Ancient East,53.51116,-6.3974,British,Business Trips,0,Ashbourne.Co..Meath.
Irelands Ancient East,53.01079,-6.1083,British,Business Trips,0,Ashford.Co..Wicklow.
Irelands Ancient East,52.59545,-8.97,British,Business Trips,0,Askeaton.Co..Limerick.
Irelands Ancient East,53.62363,-6.9156,British,Business Trips,0,Athboy.Co..Meath.
Irelands Ancient East,52.99183,-6.9857,British,Business Trips,0,Athea.Co..Kildare.
Irelands Ancient East,53.30434,-8.7502,British,Business Trips,0,Athenry.Co..Galway.
Irelands Ancient East,53.42393,-7.9407,British,Business Trips,4119,Athlone.Co..Westmeath.
Irelands Ancient East,52.99183,-6.9857,British,Business Trips,0,Athy.Co..Kildare.
Irelands Ancient East,52.85593,-6.3259,British,Business Trips,0,Aughrim.Co..Wicklow.
Irelands Ancient East,52.85796,-6.213,British,Business Trips,0,Avoca.Co..Wicklow.
Irelands Ancient East,52.70311,-6.9559,British,Business Trips,0,Bagenalstown.Co..Carlow.
Irelands Ancient East,53.9017,-8.5792,British,Business Trips,0,Bailaghardereen.Co..Roscommon.
Irelands Ancient East,53.91561,-6.9693,British,Business Trips,0,Bailieborough.Co..Cavan.
Irelands Ancient East,53.60832,-6.1821,British,Business Trips,0,Balbriggan.Co..Dublin.
Dublin - Breath of Fresh Air,53.39867,-6.1273,British,Business Trips,1233,Baldoyle.Co..Dublin.
Irelands Ancient East,53.83753,-8.3794,British,Business Trips,0,Ballangare.Co..Roscommon.
Irelands Ancient East,54.11495,-9.1551,British,Business Trips,0,Ballina.Co..Mayo.
Irelands Ancient East,53.32876,-8.2269,British,Business Trips,851,Ballinasloe.Co..Galway.
Irelands Ancient East,53.02514,-8.2208,British,Business Trips,0,Ballinderry.Co..Tipperary.
Irelands Ancient East,53.66926,-8.9567,British,Business Trips,0,Ballindine.Co..Mayo.
Irelands Ancient East,52.58766,-7.5471,British,Business Trips,0,Ballingarry.Co..Tipperary.
Irelands Ancient East,53.53295,-6.9681,British,Business Trips,0,Ballinivor.Co..Meath.
Irelands Ancient East,53.74189,-8.6336,British,Business Trips,0,Ballinlough.Co..Roscommon.
Irelands Ancient East,53.62373,-9.2211,British,Business Trips,0,Ballinrobe.Co..Mayo.
Wild Atlantic Way,51.8244,-10.273,British,Business Trips,0,Ballinskelligs.Co..Kerry
Dublin - Breath of Fresh Air,53.27673,-6.2554,British,Business Trips,0,Ballinteer.Co..Dublin.
Irelands Ancient East,54.20065,-8.365,British,Business Trips,0,Ballintogher.Co..Sligo.
Irelands Ancient East,54.57885,-8.1243,British,Business Trips,0,Ballintrae.Co..Donegal.
Irelands Ancient East,53.71809,-8.4101,British,Business Trips,0,Ballintubber.Co..Roscommon.
Irelands Ancient East,54.21085,-8.5068,British,Business Trips,0,Ballisodare.Co..Sligo.
Irelands Ancient East,54.12946,-6.9028,British,Business Trips,0,Ballybay.Co..Monaghan.
Irelands Ancient East,54.79682,-7.7875,British,Business Trips,0,Ballybofey.Co..Donegal.
Irelands Ancient East,53.11539,-7.154,British,Business Trips,0,Ballybrittas.Co..Laois.
Wild Atlantic Way,52.51108,-9.671,British,Business Trips,0,Ballybunion.Co..Kerry.
Wild Atlantic Way,54.27967,-9.3725,British,Business Trips,0,Ballycastle.Co..Mayo.
Irelands Ancient East,54.11622,-7.584,British,Business Trips,0,Ballyconnell.Co..Cavan.
Irelands Ancient East,51.82992,-8.0098,British,Business Trips,0,Ballycotton.Co..Cork.
Irelands Ancient East,54.59066,-8.4221,British,Business Trips,0,Ballycory.Co..Donegal.
Irelands Ancient East,53.32642,-7.6861,British,Business Trips,0,Ballycumber.Co..Offaly.
Irelands Ancient East,52.06144,-9.135,British,Business Trips,0,Ballydally.Co..Cork.
Wild Atlantic Way,51.56301,-9.4554,British,Business Trips,0,Ballydehob.Co..Cork.
Wild Atlantic Way,52.45455,-9.6629,British,Business Trips,0,Ballyduff.Co..Kerry.
Irelands Ancient East,52.1478,-8.0513,British,Business Trips,0,Ballyduff.Co..Waterford.
Irelands Ancient East,53.79234,-9.2178,British,Business Trips,0,Ballyfarna.Co..Mayo.
Wild Atlantic Way,52.163,-10.4229,British,Business Trips,0,Ballyferriter.Co..Kerry.
Irelands Ancient East,53.52256,-8.3257,British,Business Trips,0,Ballygar.Co..Galway.
Irelands Ancient East,52.55988,-9.1905,British,Business Trips,0,Ballyhahill.Co..Limerick.
Irelands Ancient East,53.76284,-8.7646,British,Business Trips,0,Ballyhaunis.Co..Mayo.
Wild Atlantic Way,52.39411,-9.8387,British,Business Trips,0,Ballyheigue.Co..Kerry.
Irelands Ancient East,53.86387,-7.2065,British,Business Trips,0,Ballyjamesduff.Co..Cavan.
Irelands Ancient East,52.37107,-8.346,British,Business Trips,0,Ballylanders.Co..Limerick.
Irelands Ancient East,51.72154,-9.4378,British,Business Trips,0,Ballylickey.Co..Cork.
Wild Atlantic Way,55.27844,-7.3942,British,Business Trips,0,Ballyliffen.Co..Donegal.
Wild Atlantic Way,52.548,-9.4788,British,Business Trips,0,Ballylongford.Co..Kerry.
Irelands Ancient East,53.56436,-7.7646,British,Business Trips,0,Ballymahon.Co..Longford.
Irelands Ancient East,53.69403,-8.4618,British,Business Trips,0,Ballymoe.Co..Galway.
Irelands Ancient East,52.68246,-6.2212,British,Business Trips,0,Ballymoney.Co..Wexford.
Wild Atlantic Way,52.27455,-10.1621,British,Business Trips,0,Ballymore.Co..Kerry.
Irelands Ancient East,53.49091,-7.6797,British,Business Trips,0,Ballymore.Co..Westmeath.
Irelands Ancient East,53.13301,-6.6149,British,Business Trips,0,Ballymoreustace.Co..Kildare.
Irelands Ancient East,54.08983,-8.5172,British,Business Trips,0,Ballymote.Co.Sligo.
Wild Atlantic Way,51.73564,-8.9508,British,Business Trips,0,Ballyneen.Co..Cork.
Wild Atlantic Way,52.25798,-10.1628,British,Business Trips,0,Ballyquin.Co..Kerry.
Irelands Ancient East,52.78867,-7.3338,British,Business Trips,0,Ballyraggart.Co.Kilkenny.
Irelands Ancient East,54.50299,-8.192,British,Business Trips,0,Ballyshannon.Co..Donegal.
Irelands Ancient East,52.65558,-8.572,British,Business Trips,0,Ballysheedy.Co..Limerick.
Wild Atlantic Way,53.11553,-9.1494,British,Business Trips,0,Ballyvaughan.Co..Clare.
Irelands Ancient East,53.62462,-6.4793,British,Business Trips,0,Balrath.Co..Meath.
Wild Atlantic Way,51.48433,-9.3661,British,Business Trips,0,Baltimore.Co..Cork.
Irelands Ancient East,52.94078,-6.711,British,Business Trips,0,Baltinglass.Co..Wicklow.
Irelands Ancient East,53.18646,-7.9954,British,Business Trips,997,Banagher.Co..Offaly.
Wild Atlantic Way,51.74612,-8.7318,British,Business Trips,0,Bandon.Co..Cork.
Irelands Ancient East,52.12832,-8.9073,British,Business Trips,0,Banteer.Co..Cork.
Irelands Ancient East,51.68089,-9.4486,British,Business Trips,0,Bantry.Co..Cork.
Wild Atlantic Way,51.4698,-9.7812,British,Business Trips,0,Barleycove.Co..Cork.
Irelands Ancient East,54.12125,-7.6768,British,Business Trips,0,Bawnboy.Co..Cavan.
Irelands Ancient East,53.42426,-7.9656,British,Business Trips,0,Baylough.Co..Westmeath.
Wild Atlantic Way,51.7369,-8.4816,British,Business Trips,0,Belgooly.Co..Cork.
Wild Atlantic Way,54.2239,-9.9876,British,Business Trips,0,Belmullet.Co..Mayo.
Irelands Ancient East,54.10191,-7.4497,British,Business Trips,0,Belturbet.Co..Cavan.
Wild Atlantic Way,51.63324,-9.8669,British,Business Trips,0,Bere.Island.Co..Cork.
Irelands Ancient East,53.09801,-7.9097,British,Business Trips,0,Birr.Co..Offaly.
Irelands Ancient East,54.29206,-7.8751,British,Business Trips,0,Blacklion.Co..Cavan.
Dublin - Breath of Fresh Air,53.30079,-6.1771,British,Business Trips,0,Blackrock.Co..Dublin.
Irelands Ancient East,52.44735,-6.3469,British,Business Trips,0,Blackwater.Co..Wexford.
Irelands Ancient East,51.93436,-8.567,British,Business Trips,0,Blarney.Co..Cork.
Irelands Ancient East,53.16966,-6.5341,British,Business Trips,0,Blessington.Co..Wicklow.
Dublin - Breath of Fresh Air,53.30882,-6.1967,British,Business Trips,0,Booterstown.Co..Dublin.
Irelands Ancient East,52.93918,-7.6311,British,Business Trips,0,Borris-in-Ossary.Co..Laois.
Irelands Ancient East,52.99637,-8.1273,British,Business Trips,0,Borrisokane.Co.Tipperary.
Irelands Ancient East,53.97221,-8.2973,British,Business Trips,0,Boyle.Co..Roscommon.
Dublin - Breath of Fresh Air,53.2009,-6.1111,British,Business Trips,0,Bray.Co..Wicklow.
Irelands Ancient East,55.04224,-7.3822,British,Business Trips,0,Bridge.End.Co..Donegal.
Irelands Ancient East,52.88536,-6.062,British,Business Trips,0,Brittas.Bay.Co..Wicklow.
Irelands Ancient East,53.2279,-6.4476,British,Business Trips,0,Brittas.Co..Dublin.
Irelands Ancient East,52.80603,-8.6329,British,Business Trips,0,Broadford.Co..Clare.
Irelands Ancient East,52.21909,-6.3872,British,Business Trips,0,Broadway.Co..Wexford.
Irelands Ancient East,52.31271,-9.2707,British,Business Trips,0,Brosna.Co..Kerry.
Irelands Ancient East,52.47849,-8.5423,British,Business Trips,0,Bruff.Co..Limerick.
Irelands Ancient East,52.42429,-8.662,British,Business Trips,0,Bruree.Co..Limerick.
Irelands Ancient East,52.65509,-6.6522,British,Business Trips,0,Bunclody.Co..Wexford.
Irelands Ancient East,55.13465,-7.4534,British,Business Trips,0,Buncrana.Co..Donegal.
Irelands Ancient East,54.47914,-8.2779,British,Business Trips,0,Bundoran.Co..Donegal.
Irelands Ancient East,52.14055,-7.3652,British,Business Trips,0,Bunmahon.Co..Waterford.
Irelands Ancient East,52.69887,-8.8111,British,Business Trips,0,Bunratty.Co..Clare.
Irelands Ancient East,53.1486,-9.0741,British,Business Trips,0,Burren.Co.Clare
Irelands Ancient East,52.23213,-8.6701,British,Business Trips,0,Buttevant.Co..Cork.
Irelands Ancient East,54.04521,-7.377,British,Business Trips,0,Buttlersbridge.Co..Cavan.
Dublin - Breath of Fresh Air,53.2637,-6.1663,British,Business Trips,0,Cabinteely.Co..Dublin.
Wild Atlantic Way,51.76901,-10.0995,British,Business Trips,0,Caherdaniel.Co..Kerry.
Irelands Ancient East,52.37453,-7.9252,British,Business Trips,0,Cahir.Co..Tipperary.
Wild Atlantic Way,51.9478,-10.2209,British,Business Trips,0,Cahirciveen.Co..Kerry.
Irelands Ancient East,52.54482,-7.392,British,Business Trips,0,Callan.Co..Kilkenny.
Irelands Ancient East,52.61568,-6.4263,British,Business Trips,0,Camolin.Co..Wexford.
Irelands Ancient East,52.14643,-7.8516,British,Business Trips,1233,Cappaquinn.Co..Waterford.
Irelands Ancient East,54.04267,-6.187,British,Business Trips,1233,Carlingford.Co..Louth.
Irelands Ancient East,52.83651,-6.9341,British,Business Trips,1933,Carlow.Co..Carlow.
Wild Atlantic Way,53.32422,-9.8361,British,Business Trips,0,Carna.Co..Galway.
Irelands Ancient East,52.70967,-6.4992,British,Business Trips,0,Carnew.Co..Wicklow.
Wild Atlantic Way,53.26411,-9.5983,British,Business Trips,0,Carraroe.Co..Galway.
Wild Atlantic Way,54.65772,-8.6327,British,Business Trips,0,Carrick.Co..Donegal.
Irelands Ancient East,53.94519,-8.0855,British,Business Trips,0,Carrick-on-Shannon.Co..Leitrim.
Irelands Ancient East,52.34765,-7.419,British,Business Trips,0,Carrick-on-Suir.Co..Tipperary.
Irelands Ancient East,53.97798,-6.7188,British,Business Trips,0,Carrickmacross.Co..Monaghan.
Dublin - Breath of Fresh Air,53.2472,-6.1829,British,Business Trips,0,Carrickmines.Co..Dublin.
Irelands Ancient East,51.90398,-8.8652,British,Business Trips,0,Carrigadroghid.Co..Cork.
Wild Atlantic Way,52.60479,-9.7097,British,Business Trips,0,Carrigaholt.Co..Clare.
Wild Atlantic Way,51.81791,-8.3915,British,Business Trips,3280,Carrigaline.Co..Cork.
Irelands Ancient East,53.97694,-7.6443,British,Business Trips,0,Carrigallen.Co..Leitrim.
Wild Atlantic Way,51.91055,-8.26,British,Business Trips,0,Carrigtwohill.Co..Cork.
Irelands Ancient East,53.25976,-9.1013,British,Business Trips,0,Cashel.Bay.Co..Galway.
Irelands Ancient East,52.51676,-7.8877,British,Business Trips,0,Cashel.Co..Tipperary.
Irelands Ancient East,53.855,-9.2879,British,Business Trips,1453,Castlebar.Co..Mayo.
Irelands Ancient East,53.89786,-6.3894,British,Business Trips,0,Castlebellingham.Co..Louth.
Irelands Ancient East,54.12066,-6.7397,British,Business Trips,0,Castleblaney.Co..Monaghan.
Irelands Ancient East,53.43055,-8.4793,British,Business Trips,0,Castleblarney.Co..Galway.
Irelands Ancient East,52.38243,-6.4503,British,Business Trips,0,Castlebridge.Co..Wexford.
Irelands Ancient East,52.80662,-7.216,British,Business Trips,0,Castlecomer.Co..Kilkenny.
Irelands Ancient East,52.71566,-8.4932,British,Business Trips,0,Castleconnell.Co..Limerick.
Wild Atlantic Way,51.77912,-10.0367,British,Business Trips,0,Castlecove.Co..Kerry.
Irelands Ancient East,52.90896,-6.8474,British,Business Trips,0,Castledermot.Co..Kildare.
Wild Atlantic Way,52.25347,-10.0207,British,Business Trips,0,Castlegregory.Co..Kerry.
Irelands Ancient East,52.2329,-9.4601,British,Business Trips,0,Castleisland.Co..Kerry.
Dublin - Breath of Fresh Air,53.37365,-6.3584,British,Business Trips,0,Castleknock.Co..Dublin.
Irelands Ancient East,52.08857,-8.2337,British,Business Trips,0,Castlelyons.Co..Cork.
Irelands Ancient East,52.16843,-9.7015,British,Business Trips,0,Castlemaine.Co..Kerry.
Irelands Ancient East,51.91195,-8.0535,British,Business Trips,0,Castlemartyr.Co..Cork.
Irelands Ancient East,53.68007,-7.2965,British,Business Trips,0,Castlepollard.Co..Westmeath.
Irelands Ancient East,53.76866,-8.4925,British,Business Trips,1453,Castlerea.Co..Roscommon.
Wild Atlantic Way,51.6515,-9.9103,British,Business Trips,0,Castletownbere.Co..Cork.
Irelands Ancient East,52.17311,-8.4634,British,Business Trips,0,Castletownroche.Co..Cork.
Wild Atlantic Way,52.41442,-9.7331,British,Business Trips,0,Causeway.Co..Kerry.
Irelands Ancient East,53.98972,-7.3633,British,Business Trips,997,Cavan.Co..Cavan.
Irelands Ancient East,53.3399,-6.5385,British,Business Trips,0,Celbridge.Co..Kildare.
Dublin - Breath of Fresh Air,53.34784,-6.3462,British,Business Trips,0,Chapelizod.Co..Dublin.
Irelands Ancient East,53.96403,-8.7926,British,Business Trips,0,Charlestown.Co..Mayo.
Irelands Ancient East,52.35491,-8.6832,British,Business Trips,0,Charleville.Co..Cork.
Irelands Ancient East,54.98932,-7.8915,British,Business Trips,0,Churchill.Co..Donegal.
Irelands Ancient East,52.13464,-6.9259,British,Business Trips,0,Churchtown.Co..Wexford.
Irelands Ancient East,53.34251,-7.6135,British,Business Trips,0,Clara.Co..Offaly.
Wild Atlantic Way,53.80448,-9.9951,British,Business Trips,0,Clare.Island.Co..Mayo.
Irelands Ancient East,52.81474,-8.9643,British,Business Trips,0,Clarecastle.Co..Clare.
Irelands Ancient East,53.72388,-9.0017,British,Business Trips,0,Claremorris.Co..Mayo.
Wild Atlantic Way,51.4388,-9.4923,British,Business Trips,0,Clear.Island.Co..Mayo.
Wild Atlantic Way,53.48899,-10.0179,British,Business Trips,0,Clifden.Co..Galway.
Irelands Ancient East,,,British,Business Trips,0,Clifforney.Co..Offaly.
Wild Atlantic Way,52.23092,-10.2193,British,Business Trips,0,Cloghane.Co..Kerry.
Irelands Ancient East,52.27708,-7.9951,British,Business Trips,0,Clogheen.Co..Tipperary.
Wild Atlantic Way,51.62151,-8.8887,British,Business Trips,0,Clonakilty.Co..Cork.
Dublin - Breath of Fresh Air,53.32174,-6.3952,British,Business Trips,0,Clondalkin.Co..Dublin.
Irelands Ancient East,,,British,Business Trips,0,Clonee.Co..Waterford.
Irelands Ancient East,54.17968,-7.2307,British,Business Trips,0,Clones.Co..Monaghan.
Irelands Ancient East,52.35582,-7.6903,British,Business Trips,997,Clonmel.Co..Tipperary.
Irelands Ancient East,53.66407,-7.0184,British,Business Trips,0,Clonmellan.Co..Westmeath.
Dublin - Breath of Fresh Air,53.36602,-6.2045,British,Business Trips,0,Clontarf.Co..Dublin.
Irelands Ancient East,54.20544,-6.8415,British,Business Trips,0,Clontibret.Co..Monaghan.
Irelands Ancient East,52.21989,-6.7212,British,Business Trips,0,Clonystown.Co..Wexford.
Wild Atlantic Way,54.83826,-8.411,British,Business Trips,0,Clooney.Co..Donegal.
Irelands Ancient East,,,British,Business Trips,0,Coalisland.Co..Kerry.
Wild Atlantic Way,51.85034,-8.2943,British,Business Trips,0,Cobh.Co..Cork.
Irelands Ancient East,53.64747,-7.2122,British,Business Trips,0,Collinstown.Co..Westmeath.
Irelands Ancient East,54.18033,-8.4988,British,Business Trips,0,Colooney.Co.Sligo.
Irelands Ancient East,53.54168,-9.2835,British,Business Trips,0,Cong.Co..Mayo.
Wild Atlantic Way,53.59477,-9.8448,British,Business Trips,997,Connemara.Co.Galway.
Irelands Ancient East,,,British,Business Trips,0,Cookstown.Co..Clare.
Irelands Ancient East,54.0725,-7.0824,British,Business Trips,0,Cootehill.Co..Cavan.
Wild Atlantic Way,51.89689,-8.4863,British,Business Trips,61894,Cork.City.Co..Cork.
Irelands Ancient East,52.91334,-9.126,British,Business Trips,0,Corofin.Co..Clare.
Wild Atlantic Way,53.28794,-9.55,British,Business Trips,0,Costelloe.Co..Galway.
Irelands Ancient East,54.71928,-6.2082,British,Business Trips,0,County.Antrim.
Irelands Ancient East,54.35007,-6.6523,British,Business Trips,0,County.Armagh
Irelands Ancient East,52.74558,-7.0266,British,Business Trips,0,Carlow.(Rest.of County).
Irelands Ancient East,53.84926,-7.2557,British,Business Trips,0,Cavan.(Rest.of County).
Irelands Ancient East,52.8537,-8.9975,British,Business Trips,3021,Clare.(Rest.of County).
Wild Atlantic Way,51.85037,-8.3014,British,Business Trips,828,Cork.(Rest.of County).
Irelands Ancient East,54.96908,-7.1958,British,Business Trips,0,County.Derry
Irelands Ancient East,54.4759,-8.2981,British,Business Trips,1453,Donegal.(Rest.of County).
Irelands Ancient East,54.3277,-5.7158,British,Business Trips,0,County.Down
Dublin - Breath of Fresh Air,53.25563,-6.127,British,Business Trips,44737,Dublin.(Rest.of).
Irelands Ancient East,54.34383,-7.6319,British,Business Trips,0,County.Fermanagh
Irelands Ancient East,53.06422,-8.8151,British,Business Trips,3464,Galway.(Rest.of County).
Irelands Ancient East,,,British,Business Trips,0,Kerry.(Rest.of).
Irelands Ancient East,53.16913,-6.6987,British,Business Trips,2047,Kildare.County.(Rest.of).
Irelands Ancient East,52.26246,-7.0832,British,Business Trips,0,Kilkenny.County. (Rest.of).
Irelands Ancient East,52.86094,-6.8803,British,Business Trips,0,Laois.County.(Rest.of).
Irelands Ancient East,54.4759,-8.2981,British,Business Trips,0,Leitrim.County.(Rest.of).
Irelands Ancient East,52.56396,-8.7934,British,Business Trips,3587,Limerick.Co..(Rest.of).
Irelands Ancient East,53.84164,-7.7043,British,Business Trips,0,Longford.Co..(Rest.of).
Irelands Ancient East,53.82734,-6.5333,British,Business Trips,1233,Louth.Co..(Rest.of).
Irelands Ancient East,53.66949,-9.2029,British,Business Trips,0,Mayo.Co..(Rest.of).
Irelands Ancient East,53.62974,-6.2624,British,Business Trips,997,Meath.Co..(Rest.of).
Irelands Ancient East,53.97969,-6.7281,British,Business Trips,0,Monaghan.Co..(Rest.of).
Irelands Ancient East,53.22646,-7.8829,British,Business Trips,0,Offaly.Co..(Rest.of).
Irelands Ancient East,53.77441,-8.2409,British,Business Trips,0,Roscommon.Co..(Rest.of).
Irelands Ancient East,54.4759,-8.2981,British,Business Trips,0,Sligo.(Rest.of).
Irelands Ancient East,52.47379,-8.1619,British,Business Trips,0,Tipperary.(Rest.Of).North.Riding.
Irelands Ancient East,,,British,Business Trips,0,Tipperary.(Rest.Of).South.Riding.
Irelands Ancient East,,,British,Business Trips,0,County.Tyrone
Irelands Ancient East,52.12929,-8.0042,British,Business Trips,0,Waterford.County.(Rest.of).
Irelands Ancient East,53.50746,-7.1465,British,Business Trips,0,Westmeath.County.(Rest.of).
Irelands Ancient East,52.71736,-6.3506,British,Business Trips,0,Wexford.County.(Rest.of).
Irelands Ancient East,52.86208,-6.2961,British,Business Trips,1233,Wicklow.County.(Rest.of).
Wild Atlantic Way,51.63386,-8.7059,British,Business Trips,0,Courtmacsherry.Co.Cork.
Irelands Ancient East,52.64486,-6.2286,British,Business Trips,0,Courtown.Co..Wexford.
Irelands Ancient East,52.69968,-8.7666,British,Business Trips,0,Cratloe.Co..Clare.
Wild Atlantic Way,52.74633,-9.4301,British,Business Trips,0,Cree.Co..Clare.
Wild Atlantic Way,55.12055,-7.9139,British,Business Trips,0,Cresslough.Co..Donegal.
Wild Atlantic Way,51.46696,-9.7282,British,Business Trips,0,Crookhaven.Co..Cork.
Irelands Ancient East,52.51896,-8.7182,British,Business Trips,0,Croom.Co..Limerick.
Wild Atlantic Way,52.59862,-9.7747,British,Business Trips,0,Cross.Co..Clare.
Wild Atlantic Way,51.80347,-8.3016,British,Business Trips,2590,Crosshaven.Co..Cork.
Irelands Ancient East,53.71412,-7.0205,British,Business Trips,0,Crosskiel.Co..Meath.
Wild Atlantic Way,54.10034,-9.3158,British,Business Trips,0,Crossmolina.Co..Mayo.
Irelands Ancient East,52.93865,-8.8968,British,Business Trips,0,Crusheen.Co..Clare.
Wild Atlantic Way,55.28594,-7.1651,British,Business Trips,0,Culdaff.Co..Donegal.
Irelands Ancient East,52.11186,-9.1211,British,Business Trips,0,Cullen.Co..Cork.
Irelands Ancient East,54.0887,-6.2619,British,Business Trips,0,Cullen.Co..Louth.
Irelands Ancient East,52.39318,-6.3921,British,Business Trips,0,Curracloe.Co..Wexford.
Irelands Ancient East,53.14203,-6.8286,British,Business Trips,0,Curragh.Co..Kildare.
Irelands Ancient East,53.65222,-8.6629,British,Business Trips,0,Curragh.West.Co..Galway.
Dublin - Breath of Fresh Air,53.27791,-6.1058,British,Business Trips,0,Dalkey.Co..Dublin.
Dublin - Breath of Fresh Air,53.13261,-6.0923,British,Business Trips,0,Delgany.Co..Wicklow.
Irelands Ancient East,53.61257,-7.0917,British,Business Trips,0,Delvin.Co..Westmeath.
Wild Atlantic Way,51.7654,-10.1209,British,Business Trips,0,Derrynane.Co..Kerry.
Wild Atlantic Way,52.13876,-10.2705,British,Business Trips,0,Dingle.Co.Kerry.
Dublin - Breath of Fresh Air,53.48534,-6.1504,British,Business Trips,0,Donabate.Co..Dublin.
Irelands Ancient East,54.6542,-8.1105,British,Business Trips,0,Donegal.Town.Co..Donegal.
Irelands Ancient East,52.21517,-8.586,British,Business Trips,0,Doneraile.Co..Cork.
Irelands Ancient East,,,British,Business Trips,0,Doohoma.Co..Clare.
Wild Atlantic Way,53.01744,-9.373,British,Business Trips,0,Doolin.Co..Clare.
Wild Atlantic Way,52.73085,-9.526,British,Business Trips,0,Doonbeg.Co..Clare.
Wild Atlantic Way,52.93083,-9.3439,British,Business Trips,0,Downings.Co..Clare.
Irelands Ancient East,54.19388,-8.0252,British,Business Trips,0,Dowra.Co..Cavan.
Wild Atlantic Way,51.65994,-9.2612,British,Business Trips,0,Drimoleague.Co..Cork.
Irelands Ancient East,51.91438,-8.7421,British,Business Trips,0,Dripsey.Co..Cork.
Irelands Ancient East,53.71786,-6.3561,British,Business Trips,1233,Drogheda.Co..Louth.
Irelands Ancient East,54.23067,-8.3026,British,Business Trips,0,Dromahair.Co..Leitrim.
Irelands Ancient East,52.7828,-8.9038,British,Business Trips,0,Dromoland.Co..Clare.
Irelands Ancient East,54.10388,-7.1434,British,Business Trips,0,Drum.Co..Monaghan.
Irelands Ancient East,54.32705,-8.4976,British,Business Trips,0,Drumcliffe.Co..Sligo.
Irelands Ancient East,53.8516,-6.6563,British,Business Trips,0,Drumconrath.Co..Meath.
Irelands Ancient East,54.16941,-8.1427,British,Business Trips,0,Drumkeerin.Co..Leitrim.
Irelands Ancient East,54.0478,-8.04,British,Business Trips,0,Drumshanbo.Co..Leitrim.
Irelands Ancient East,53.92692,-8.0079,British,Business Trips,0,Drumsna.Co..Limerick.
Irelands Ancient East,52.41479,-9.3902,British,Business Trips,0,Duagh.Co..Kerry.
Dublin - Breath of Fresh Air,53.34981,-6.2603,British,Business Trips,319753,Dublin.City.Co..Dublin.
Dublin - Breath of Fresh Air,53.2944,-6.1339,British,Business Trips,1233,Dun Laoghaire.Co..Dublin.
Irelands Ancient East,53.65475,-6.4222,British,Business Trips,0,Duleek.Co..Meath.
Irelands Ancient East,53.41927,-6.4759,British,Business Trips,0,Dunboyne.Co..Meath.
Irelands Ancient East,52.22854,-6.6551,British,Business Trips,0,Duncormack.Co..Wexford.
Irelands Ancient East,53.99795,-6.406,British,Business Trips,6404,Dundalk.Co..Louth
Irelands Ancient East,,,British,Business Trips,0,Dundrum.Co..Clare.
Irelands Ancient East,52.55952,-8.0432,British,Business Trips,0,Dundrum.Co..Tipperary.
Wild Atlantic Way,55.18347,-7.9694,British,Business Trips,730,Dunfanaghy.Co..Donegal.
Irelands Ancient East,52.09368,-7.6204,British,Business Trips,2373,Dungarvan.Co..Waterford.
Wild Atlantic Way,54.95029,-8.3574,British,Business Trips,0,Dungloe.Co..Donegal.
Irelands Ancient East,53.05788,-6.7016,British,Business Trips,0,Dunlavin.Co..Wicklow.
Irelands Ancient East,53.83105,-6.3945,British,Business Trips,0,Dunleer.Co..Louth.
Wild Atlantic Way,51.72226,-9.1118,British,Business Trips,0,Dunmanway.Co..Cork.
Irelands Ancient East,52.15277,-6.9948,British,Business Trips,0,Dunmore.East.Co..Waterford.
Irelands Ancient East,52.05467,-9.5103,British,Business Trips,0,Dunmore.Co..Kerry.
Wild Atlantic Way,52.13007,-10.4503,British,Business Trips,0,Dunquin.Co..Kerry.
Irelands Ancient East,53.51352,-6.5403,British,Business Trips,2885,Dunshaughlin.Co..Meath.
Wild Atlantic Way,51.62171,-9.522,British,Business Trips,0,Durrus.Co..Cork.
Irelands Ancient East,54.28633,-8.9624,British,Business Trips,0,Easkey.Co..Sligo.
Irelands Ancient East,53.34328,-7.0506,British,Business Trips,0,Edenderry.Co..Offaly.
Irelands Ancient East,53.85227,-8.1978,British,Business Trips,0,Elphin.Co..Roscommon.
Irelands Ancient East,52.46392,-8.3513,British,Business Trips,0,Emly.Co..Tipperary.
Irelands Ancient East,54.34054,-6.9676,British,Business Trips,0,Emyvale.Co..Monaghan.
Irelands Ancient East,53.4142,-6.8297,British,Business Trips,0,Enfield.Co..Meath.
Irelands Ancient East,52.84743,-8.9887,British,Business Trips,936,Ennis.Co..Clare.
Irelands Ancient East,52.5022,-6.5661,British,Business Trips,0,Enniscorthy.Co..Wexford.
Irelands Ancient East,54.21285,-9.0932,British,Business Trips,0,Enniscrone.Co..Sligo.
Wild Atlantic Way,51.73936,-8.9269,British,Business Trips,0,Enniskean.Co..Cork.
Dublin - Breath of Fresh Air,53.1935,-6.1707,British,Business Trips,0,Enniskerry.Co..Wicklow.
Wild Atlantic Way,52.94037,-9.2935,British,Business Trips,0,Ennistymon.Co..Clare.
Wild Atlantic Way,55.2,-7.7,British,Business Trips,0,Fanad.Co..Donegal.
Irelands Ancient East,52.17199,-9.5505,British,Business Trips,0,Farranfore.Co..Kerry.
Irelands Ancient East,52.92557,-8.6375,British,Business Trips,0,Feakle.Co..Clare.
Wild Atlantic Way,52.27841,-9.8612,British,Business Trips,0,Fenit.Co..Kerry.
Irelands Ancient East,52.13936,-8.2756,British,Business Trips,0,Fermoy.Co..Cork.
Irelands Ancient East,52.59093,-6.498,British,Business Trips,0,Ferns.Co..Wexford.
Irelands Ancient East,52.35491,-6.5139,British,Business Trips,0,Ferrycarrig.Co..Wexford.
Irelands Ancient East,52.47098,-7.6968,British,Business Trips,0,Fethard.Co..Tipperary.
Irelands Ancient East,52.1923,-6.8402,British,Business Trips,0,Fetherd-on-Sea.Co..Wexford.
Irelands Ancient East,53.77996,-7.3885,British,Business Trips,0,Finea.Co..Westmeath.
Irelands Ancient East,52.31388,-6.7512,British,Business Trips,0,Foulksmith.Co..Wexford.
Irelands Ancient East,53.98077,-9.1132,British,Business Trips,0,Foxford.Co..Mayo.
Irelands Ancient East,53.59132,-9.0077,British,Business Trips,0,Foxhall.Co.Galway
Dublin - Breath of Fresh Air,53.26858,-6.183,British,Business Trips,0,Foxrock.Co.Dublin
Irelands Ancient East,52.61053,-9.1051,British,Business Trips,0,Foynes.Co..Limerick.
Irelands Ancient East,53.86951,-8.4074,British,Business Trips,0,Frenchpark.Co..Roscommon.
Irelands Ancient East,52.73251,-7.3969,British,Business Trips,0,Freshford.Co..Kilkenny.
Irelands Ancient East,53.26257,-9.0704,British,Business Trips,14202,Galway City-Salthill.Co..Galway.
Wild Atlantic Way,51.64922,-8.6027,British,Business Trips,0,Garrettstown.Co..Cork.
Irelands Ancient East,51.87198,-8.016,British,Business Trips,0,Garryvoe.Co..Cork.
Wild Atlantic Way,51.56651,-9.121,British,Business Trips,0,Glandore.Co..Cork.
Dublin - Breath of Fresh Air,53.28791,-6.126,British,Business Trips,0,Glasthule.Co..Dublin.
Dublin - Breath of Fresh Air,53.28129,-6.1238,British,Business Trips,0,Glenageary.Co..Dublin.
Irelands Ancient East,53.60555,-8.5604,British,Business Trips,0,Glenamady.Co..Galway.
Irelands Ancient East,52.05619,-9.9403,British,Business Trips,0,Glenbeigh.Co..Kerry.
Irelands Ancient East,54.28767,-8.1304,British,Business Trips,0,Glenboy.Co..Leitrim.
Irelands Ancient East,51.99447,-9.858,British,Business Trips,0,Glencar.Co..Kerry.
Wild Atlantic Way,54.70809,-8.7295,British,Business Trips,0,Glencolumbkille.Co..Donegal.
Dublin - Breath of Fresh Air,53.20059,-6.2924,British,Business Trips,0,Glencree.Co..Wicklow.
Irelands Ancient East,53.01198,-6.3298,British,Business Trips,0,Glendalough.Co..Wicklow.
Irelands Ancient East,52.96663,-6.1446,British,Business Trips,0,Glenealy.Co..Wicklow.
Irelands Ancient East,51.75003,-9.5522,British,Business Trips,2885,Glengarriff.Co..Cork.
Wild Atlantic Way,54.79717,-8.283,British,Business Trips,0,Glenties.Co..Donegal.
Irelands Ancient East,52.57191,-9.285,British,Business Trips,0,Glin.Co..Limerick.
Irelands Ancient East,53.65069,-8.4315,British,Business Trips,0,Glinsk.Co..Galway.
Wild Atlantic Way,51.49288,-9.7106,British,Business Trips,0,Goleen.Co..Cork.
Irelands Ancient East,52.58995,-7.9595,British,Business Trips,0,Gooldscross.Co..Tipperary.
Irelands Ancient East,52.67574,-6.2943,British,Business Trips,0,Gorey.Co..Wexford.
Irelands Ancient East,53.63731,-6.2343,British,Business Trips,0,Gormanstown.Co..Meath.
Irelands Ancient East,53.06664,-8.8187,British,Business Trips,0,Gort.Co..Galway.
Wild Atlantic Way,55.11693,-8.1401,British,Business Trips,0,Gortahork.Co..Donegal.
Irelands Ancient East,53.58941,-8.7092,British,Business Trips,0,Gorteen.Co..Galway.
Irelands Ancient East,51.83941,-9.3148,British,Business Trips,0,Gougane.Barra.Co..Cork.
Irelands Ancient East,52.54451,-6.9549,British,Business Trips,0,Graiguenamanagh.Co..Kilkenny.
Irelands Ancient East,53.77927,-7.4918,British,Business Trips,0,Granard.Co..Longford.
Irelands Ancient East,54.39328,-8.5221,British,Business Trips,0,Grange.Co..Sligo.
Irelands Ancient East,54.03154,-6.1314,British,Business Trips,0,Greenore.Co..Louth.
Dublin - Breath of Fresh Air,53.14912,-6.0793,British,Business Trips,0,Greystones.Co..Wicklow.
Irelands Ancient East,52.63423,-7.2503,British,Business Trips,0,Gurteen.Co..Kilkenny.
Wild Atlantic Way,55.0498,-8.2287,British,Business Trips,0,Gweedore.Co..Donegal.
Irelands Ancient East,52.86539,-6.5586,British,Business Trips,0,Hacketstown. Co..Carlow.
Irelands Ancient East,51.83391,-8.934,British,Business Trips,0,Harbour.View.Co..Cork.
Irelands Ancient East,53.46946,-9.1061,British,Business Trips,0,Headford.Co..Galway.
Irelands Ancient East,52.51882,-8.4687,British,Business Trips,0,Herbertstown.Co..Limerick.
Irelands Ancient East,53.66072,-9.1173,British,Business Trips,0,Hollymount.Co..Mayo.
Irelands Ancient East,52.63977,-7.8702,British,Business Trips,0,Holycross.Co..Tipperary.
Irelands Ancient East,52.47327,-8.4325,British,Business Trips,0,Hospital.Co..Limerick.
Irelands Ancient East,,,British,Business Trips,0,Howth.Co..Dublin.
Irelands Ancient East,52.91383,-6.612,British,Business Trips,0,Humewood.Co..Wicklow.
Irelands Ancient East,52.14765,-9.9625,British,Business Trips,0,Inch.Co..Kerry.
Irelands Ancient East,52.74113,-6.236,British,Business Trips,0,Inch.Co..Wexford.
Wild Atlantic Way,51.602,-8.876,British,Business Trips,0,Inchdoney.Co..Cork.
Irelands Ancient East,51.84237,-9.1266,British,Business Trips,0,Inchigeela.Co..Cork.
Irelands Ancient East,52.48754,-7.0651,British,Business Trips,0,Inistioge.Co..Kilkenny.
Wild Atlantic Way,51.76462,-8.6565,British,Business Trips,0,Innishannon.Co..Cork.
Irelands Ancient East,54.65235,-8.2893,British,Business Trips,0,Inver.Co..Donegal.
Wild Atlantic Way,53.24031,-9.4655,British,Business Trips,0,Invertin.Co..Galway.
Dublin - Breath of Fresh Air,53.33751,-6.2194,British,Business Trips,0,Irish.Town.Co..Dublin.
Irelands Ancient East,53.92541,-8.0387,British,Business Trips,0,Jamestown.Co..Leitrim.
Irelands Ancient East,52.74915,-7.5565,British,Business Trips,0,Johnstown.Co..Kilkenny.
Irelands Ancient East,52.17726,-8.9052,British,Business Trips,0,Kanturk.Co..Cork.
Irelands Ancient East,53.72684,-6.8748,British,Business Trips,0,Kells.Co..Meath.
Irelands Ancient East,51.8801,-9.5835,British,Business Trips,0,Kenmare.Co..Kerry.
Wild Atlantic Way,54.20684,-9.2322,British,Business Trips,0,Killalla.Co..Mayo.
Wild Atlantic Way,53.61153,-9.7704,British,Business Trips,0,Killary.Harbour.Co..Mayo.
Irelands Ancient East,53.36846,-7.4995,British,Business Trips,0,Kilbeggan.Co..Westmeath.
Wild Atlantic Way,51.67356,-8.6917,British,Business Trips,0,Kilbrittain.Co..Cork.
Irelands Ancient East,53.39943,-6.6681,British,Business Trips,0,Kilcock.Co..Kildare.
Irelands Ancient East,53.13029,-6.7453,British,Business Trips,0,Kilcullen.Co..Kildare.
Irelands Ancient East,53.15893,-6.9096,British,Business Trips,0,Kildare.Town.Co..Kildare.
Irelands Ancient East,52.35869,-8.4673,British,Business Trips,0,Kilfinane.Co..Limerick.
Irelands Ancient East,51.90315,-9.4384,British,Business Trips,0,Kilgarvin.Co..Kerry.
Wild Atlantic Way,52.68282,-9.6444,British,Business Trips,661,Kilkee.Co..Clare.
Irelands Ancient East,53.87179,-8.8502,British,Business Trips,0,Kilkelly.Co..Mayo.
Irelands Ancient East,52.65415,-7.2448,British,Business Trips,5706,Kilkenny.Town.Co..Kilkenny.
Irelands Ancient East,53.24871,-6.5905,British,Business Trips,0,Kill.Co..Kildare.
Irelands Ancient East,52.80889,-8.4475,British,Business Trips,0,Killaloe.Co..Clare.
Irelands Ancient East,52.05994,-9.5044,British,Business Trips,3285,Killarney.Co..Kerry.
Irelands Ancient East,54.01387,-7.5282,British,Business Trips,0,Killeshandra.Co..Cavan.
Irelands Ancient East,,,British,Business Trips,0,Killinboy.Co..Clare.
Irelands Ancient East,,,British,Business Trips,0,Killiney-Dalkey.Co..Dublin.(See.D).
Irelands Ancient East,52.10635,-9.7843,British,Business Trips,936,Killorglin.Co..Kerry.
Irelands Ancient East,53.51369,-7.1428,British,Business Trips,0,Killucan.Co..Westmeath.
Wild Atlantic Way,54.63476,-8.4547,British,Business Trips,0,Killybegs.Co..Donegal.
Irelands Ancient East,52.39982,-8.5754,British,Business Trips,0,Kilmallock.Co..Limerick.
Irelands Ancient East,52.41604,-8.9157,British,Business Trips,0,Kilmeedy.Co..Limerick.
Irelands Ancient East,53.87421,-8.8292,British,Business Trips,0,Kilmore.Co..Mayo.
Irelands Ancient East,52.17572,-6.5864,British,Business Trips,0,Kilmore.Quay.Co..Wexford.
Irelands Ancient East,52.50226,-6.296,British,Business Trips,0,Kilmuckridge.Co..Wexford.
Wild Atlantic Way,52.6407,-9.4859,British,Business Trips,0,Kilrush.Co..Clare.
Irelands Ancient East,52.36158,-7.5835,British,Business Trips,0,Kilsheelin.Co..Tipperary.
Irelands Ancient East,52.52255,-8.3996,British,Business Trips,0,Kiltely.Co..Limerick.
Dublin - Breath of Fresh Air,53.23596,-6.1938,British,Business Trips,0,Kilternan.Co..Dublin.
Irelands Ancient East,53.84998,-8.9988,British,Business Trips,0,Kiltimagh.Co..Mayo.
Irelands Ancient East,54.35624,-8.0369,British,Business Trips,0,Kiltyclogher.Co..Leitrim.
Irelands Ancient East,53.90687,-6.8052,British,Business Trips,0,Kingscourt.Co..Cavan.
Irelands Ancient East,54.44872,-8.2858,British,Business Trips,0,Kinlough.Co..Leitrim.
Irelands Ancient East,53.13631,-6.7851,British,Business Trips,0,Kinneagh.Co..Kildare.
Irelands Ancient East,53.45681,-7.105,British,Business Trips,0,Kinnegad.Co..Westmeath.
Wild Atlantic Way,51.70605,-8.5225,British,Business Trips,936,Kinsale.Co..Cork.
Irelands Ancient East,53.13885,-8.9379,British,Business Trips,0,Kinvara.Co..Galway.
Irelands Ancient East,53.79006,-8.9215,British,Business Trips,0,Knock.Co..Mayo.
Irelands Ancient East,,,British,Business Trips,0,Knockboy.Co..Limerick.
Irelands Ancient East,52.37748,-8.3548,British,Business Trips,0,Knocklong.Co..Cork.
Irelands Ancient East,52.11656,-9.2064,British,Business Trips,0,Knocknagree.Co..Cork.
Irelands Ancient East,52.21031,-6.3814,British,Business Trips,0,Lady's.Island.Co..Wexford.
Wild Atlantic Way,52.93268,-9.3367,British,Business Trips,0,Lahinch.Co..Clare.
Irelands Ancient East,53.67412,-7.9923,British,Business Trips,0,Lanesboro.Co..Longford.
Irelands Ancient East,53.00893,-6.3004,British,Business Trips,0,Laragh. Co..Wicklow.
Wild Atlantic Way,51.76289,-9.7791,British,Business Trips,0,Lauragh.Co..Kerry.
Irelands Ancient East,53.68063,-6.2375,British,Business Trips,0,Laytown.Co..Meath.
Wild Atlantic Way,51.5812,-9.1409,British,Business Trips,0,Leap.Co..Cork.
Wild Atlantic Way,53.5956,-9.6931,British,Business Trips,0,Leenane.Co..Galway.
Irelands Ancient East,52.73577,-6.9748,British,Business Trips,0,Leighlin.Bridge.Co..Carlow.
Irelands Ancient East,52.9943,-7.3323,British,Business Trips,0,Leix.Co..Laois.
Irelands Ancient East,53.36384,-6.49,British,Business Trips,0,Leixlip.Co..Kildare.
Wild Atlantic Way,53.5536,-9.9482,British,Business Trips,0,Letterfrack.Co..Galway.
Irelands Ancient East,54.95584,-7.7343,British,Business Trips,0,Letterkenny.Co..Donegal.
Irelands Ancient East,54.83288,-7.4856,British,Business Trips,0,Lifford.Co..Donegal.
Irelands Ancient East,52.66802,-8.6305,British,Business Trips,25556,Limerick.City.Co..Limerick.
Wild Atlantic Way,52.94011,-9.3942,British,Business Trips,0,Liscannor.Co..Clare.
Wild Atlantic Way,53.03017,-9.2897,British,Business Trips,0,Lisdoonvarna.Co..Clare.
Irelands Ancient East,52.13582,-7.9377,British,Business Trips,0,Lismore.Co..Waterford.
Irelands Ancient East,52.44605,-9.4854,British,Business Trips,0,Listowel.Co..Kerry.
Irelands Ancient East,52.63698,-7.7354,British,Business Trips,0,Littleton.Co..Tipperary.
Irelands Ancient East,53.72763,-7.7933,British,Business Trips,5413,Longford.Town.Co..Longford.
Irelands Ancient East,,,British,Business Trips,0,Loobridge.Co..Kerry.
Irelands Ancient East,,,British,Business Trips,0,Loughlan.Co..Meath.
Irelands Ancient East,53.19891,-8.5661,British,Business Trips,2528,Loughrea.Co..Galway.
Wild Atlantic Way,53.76314,-9.8091,British,Business Trips,0,Louisburgh.Co..Mayo.
Irelands Ancient East,53.35721,-6.4498,British,Business Trips,2885,Lucan.Co..Dublin.
Irelands Ancient East,51.9048,-8.9588,British,Business Trips,2528,Macroom.Co..Cork.
Dublin - Breath of Fresh Air,53.45092,-6.1501,British,Business Trips,5812,Malahide.Co..Dublin.
Wild Atlantic Way,55.35278,-7.3321,British,Business Trips,0,Malin.Head.Co..Donegal.
Wild Atlantic Way,54.69009,-8.7592,British,Business Trips,0,Malinmore.Co..Donegal.
Irelands Ancient East,52.13898,-8.6539,British,Business Trips,0,Mallow.Co..Cork.
Irelands Ancient East,54.30487,-8.1767,British,Business Trips,0,Manorhamilton.Co..Leitrim.
Irelands Ancient East,53.48771,-8.5659,British,Business Trips,0,Marylough.Co..Galway.
Irelands Ancient East,53.38129,-6.5919,British,Business Trips,2528,Maynooth.Co..Kildare.
Irelands Ancient East,,,British,Business Trips,3761,Middleton.Co..Cork.
Irelands Ancient East,52.06013,-9.0647,British,Business Trips,0,Millstreet.Co..Cork.
Irelands Ancient East,52.86958,-8.8005,British,Business Trips,0,Milltown.Co..Clare.
Irelands Ancient East,53.6137,-8.899,British,Business Trips,0,Milltown.Co..Galway.
Wild Atlantic Way,52.8562,-9.4008,British,Business Trips,0,Milltown.Malbay.Co..Clare.
Irelands Ancient East,,,British,Business Trips,0,Minnane.Co..Cork.
Irelands Ancient East,52.26621,-8.2699,British,Business Trips,0,Mitchelstown.Co..Cork.
Wild Atlantic Way,51.45706,-9.8003,British,Business Trips,0,Mizen.Head.Co..Cork.
Irelands Ancient East,53.395,-7.7186,British,Business Trips,0,Moate.Co..Westmeath.
Irelands Ancient East,53.92183,-7.8653,British,Business Trips,0,Mohill.Co..Leitrim.
Irelands Ancient East,54.24924,-6.9683,British,Business Trips,0,Monaghan.Town.Co..Monaghan.
Irelands Ancient East,53.14007,-7.0604,British,Business Trips,0,Monastereven.Co..Kildare.
Irelands Ancient East,53.94373,-8.4956,British,Business Trips,0,Monasterredan.Co..Sligo.
Dublin - Breath of Fresh Air,53.28859,-6.1518,British,Business Trips,0,Monkstown.Co..Dublin.
Irelands Ancient East,52.98429,-6.8504,British,Business Trips,0,Moone.Co..Kildare.
Irelands Ancient East,,,British,Business Trips,0,Mornington.Co..Laois.
Irelands Ancient East,53.11815,-7.3267,British,Business Trips,0,Mountmellick.Co..Laois.
Irelands Ancient East,53.81794,-7.2563,British,Business Trips,0,Mount.Nugent.Co..Cavan.
Irelands Ancient East,53.00256,-7.4751,British,Business Trips,0,Mountrath.Co..Laois.
Irelands Ancient East,52.93172,-8.4298,British,Business Trips,0,Mountshannon.Co..Clare.
Wild Atlantic Way,55.18902,-7.0401,British,Business Trips,0,Moville.Co..Donegal.
Irelands Ancient East,53.33875,-9.1815,British,Business Trips,0,Moycullen.Co..Galway.
Irelands Ancient East,53.78901,-6.8855,British,Business Trips,0,Moynalty.Co..Meath.
Irelands Ancient East,53.42992,-6.9209,British,Business Trips,0,Moyvalley.Co..Meath.
Irelands Ancient East,52.50168,-9.3705,British,Business Trips,0,Moyvane.Co..Kerry.
Irelands Ancient East,52.03805,-9.4753,British,Business Trips,0,Muckross.Co..Kerry.
Irelands Ancient East,54.46555,-8.4495,British,Business Trips,0,Mullaghmore.Co..Sligo.
Irelands Ancient East,52.51272,-7.5037,British,Business Trips,0,Mullinahone.Co..Tipperary.
Irelands Ancient East,52.36917,-7.1709,British,Business Trips,0,Mullinavant.Co..Kilkenny.
Irelands Ancient East,53.52593,-7.3381,British,Business Trips,3418,Mullingar.Co..Westmeath.
Wild Atlantic Way,53.90618,-9.7814,British,Business Trips,0,Mulrany.Co..Mayo.
Irelands Ancient East,52.64929,-8.4035,British,Business Trips,0,Murroe.Co..Limerick.
Wild Atlantic Way,51.783,-8.3004,British,Business Trips,0,Myrtleville.Co..Cork.
Irelands Ancient East,53.22057,-6.6593,British,Business Trips,2047,Naas.Co..Kildare.
Irelands Ancient East,53.64709,-6.6967,British,Business Trips,0,Navan.Co..Meath.
Irelands Ancient East,,52.8643,British,Business Trips,0,Nenagh.Co..Tipp
Irelands Ancient East,52.3962,-6.9472,British,Business Trips,0,New.Ross.Co..Wexford.
Irelands Ancient East,53.17508,-6.8047,British,Business Trips,0,Newbridge.Co..Kildare.
Irelands Ancient East,53.07336,-6.0572,British,Business Trips,0,Newcastle.Co..Wicklow.
Irelands Ancient East,52.44875,-9.0546,British,Business Trips,0,Newcastle.West.Co..Limerick.
Irelands Ancient East,52.21402,-9.0031,British,Business Trips,0,Newmarket.Co..Cork.
Irelands Ancient East,52.76067,-8.899,British,Business Trips,5055,Newmarket-upon-Fergus.Co..Clare.
Wild Atlantic Way,53.88528,-9.5464,British,Business Trips,0,Newport.Co..Mayo.
Irelands Ancient East,53.09278,-6.112,British,Business Trips,828,Newtown.Mt..Kennedy. Co..Wicklow.
Irelands Ancient East,53.82171,-6.7479,British,Business Trips,0,Nobber.Co..Meath.
Irelands Ancient East,,,British,Business Trips,0,North.Ireland.(non-specific)
Irelands Ancient East,52.7527,-8.4986,British,Business Trips,0,O'Brien's.Bridge.Co..Clare.
Irelands Ancient East,53.77002,-7.1624,British,Business Trips,0,Oldcastle.Co..Meath.
Irelands Ancient East,53.27035,-8.9219,British,Business Trips,2312,Oranmore.Co..Galway.
Irelands Ancient East,53.42855,-9.3189,British,Business Trips,0,Oughterard.Co..Galway.
Irelands Ancient East,52.50392,-6.3909,British,Business Trips,0,Oulart.Co..Wexford.
Wild Atlantic Way,51.56762,-9.0023,British,Business Trips,0,Owenahincha.Co..Cork.
Wild Atlantic Way,51.70602,-8.4594,British,Business Trips,0,Oysterhaven.Co..Cork.
Irelands Ancient East,52.54911,-8.3528,British,Business Trips,0,Pallasgreen.Co..Limerick.
Dublin - Breath of Fresh Air,53.35661,-6.3715,British,Business Trips,0,Palmerston.Co..Dublin.
Wild Atlantic Way,51.81742,-9.8741,British,Business Trips,0,Parknasilla-Sneem.Co..Kerry.
Irelands Ancient East,52.23969,-6.9744,British,Business Trips,0,Passage.East.Co..Waterford.
Wild Atlantic Way,51.87206,-8.3362,British,Business Trips,0,Passage.West.Co..Cork.
Irelands Ancient East,52.59822,-8.7069,British,Business Trips,0,Patrickswell.Co..Limerick.
Irelands Ancient East,52.68132,-7.0211,British,Business Trips,0,Paulstown.Co..Kilkenny.
Irelands Ancient East,54.54943,-7.832,British,Business Trips,0,Pettigo.Co..Donegal.
Irelands Ancient East,52.35066,-7.325,British,Business Trips,0,Pilltown.Co..Kilkenny.
Irelands Ancient East,53.97669,-9.2125,British,Business Trips,0,Pontoon.Co..Mayo.
Irelands Ancient East,53.16121,-7.1878,British,Business Trips,0,Portarlington.Co..Laois.
Irelands Ancient East,53.03281,-7.2988,British,Business Trips,2528,Portlaoise.Co..Laois.
Irelands Ancient East,52.2882,-7.3144,British,Business Trips,0,Portlaw.Co..Waterford.
Dublin - Breath of Fresh Air,53.42561,-6.1316,British,Business Trips,0,Portmarnock.Co..Dublin.
Wild Atlantic Way,55.17846,-7.9343,British,Business Trips,0,Portna.Blagh.Co..Donegal.
Wild Atlantic Way,54.84089,-8.4673,British,Business Trips,0,Portnoo.Co..Donegal.
Dublin - Breath of Fresh Air,53.4932,-6.1146,British,Business Trips,0,Portrane.Co..Dublin.
Irelands Ancient East,52.8847,-8.3449,British,Business Trips,0,Portroe.Co..Tipperary.
Wild Atlantic Way,55.20563,-7.6351,British,Business Trips,0,Portsalon.Co..Donegal.
Irelands Ancient East,53.09278,-8.2185,British,Business Trips,0,Portuma.Co..Galway.
Irelands Ancient East,53.28813,-6.755,British,Business Trips,0,Prosperous.Co..Kildare.
Irelands Ancient East,52.93188,-8.2386,British,Business Trips,0,Puckane.Co..Tipperary.
Wild Atlantic Way,52.81726,-9.4559,British,Business Trips,0,Quilty.Co..Clare.
Irelands Ancient East,52.81758,-8.8638,British,Business Trips,0,Quinn.Co..Clare.
Irelands Ancient East,55.0359,-7.6481,British,Business Trips,0,Ramelton.Co..Donegal.
Irelands Ancient East,52.24505,-6.9201,British,Business Trips,0,Ramsgrange.Co..Wexford.
Irelands Ancient East,54.1179,-7.0148,British,Business Trips,0,Rathcorry.Co..Monaghan.
Irelands Ancient East,52.85572,-7.5867,British,Business Trips,0,Rathdowney.Co..Laois.
Irelands Ancient East,52.93231,-6.2311,British,Business Trips,0,Rathdrum.Co..Wicklow.
Irelands Ancient East,52.52381,-8.9371,British,Business Trips,0,Rathkeale.Co..Limerick.
Irelands Ancient East,52.35291,-8.6773,British,Business Trips,0,Rathluirc.Co..Cork.
Irelands Ancient East,55.03685,-7.6504,British,Business Trips,0,Rathmelton.Co.Donegal
Irelands Ancient East,53.21744,-6.5639,British,Business Trips,0,Rathmore.Co..Kildare.
Irelands Ancient East,55.09707,-7.5363,British,Business Trips,0,Rathmullen.Co..Donegal.
Irelands Ancient East,52.9946,-6.0828,British,Business Trips,0,Rathnew.Co..Wicklow.
Irelands Ancient East,53.33032,-8.1302,British,Business Trips,0,Rathpeak.Co..Roscommon.
Irelands Ancient East,54.05636,-6.3384,British,Business Trips,0,Ravensdale.Co..Louth.
Wild Atlantic Way,53.46553,-9.7237,British,Business Trips,0,Recess.Co..Galway.
Irelands Ancient East,54.09909,-7.3193,British,Business Trips,0,Redshills.Co..Cavan.
Wild Atlantic Way,53.5952,-9.9579,British,Business Trips,0,Renvyle.Co..Galway.
Irelands Ancient East,54.4759,-8.2981,British,Business Trips,0,Leitrim.(Rest.of County).
Wild Atlantic Way,51.93618,-8.3993,British,Business Trips,0,Reverstown.Co..Cork.
Irelands Ancient East,53.34999,-7.199,British,Business Trips,0,Rhode.Co..Offaly.
Irelands Ancient East,,,British,Business Trips,0,Riverstown.Co..Kilkenny.
Irelands Ancient East,54.13044,-8.3953,British,Business Trips,0,Riverstown.Co..Sligo.
Wild Atlantic Way,51.87264,-8.4038,British,Business Trips,0,Rochestown.Co..Cork.
Irelands Ancient East,53.83277,-7.9215,British,Business Trips,0,Roosky.Co..Roscommon.
Wild Atlantic Way,51.57767,-9.038,British,Business Trips,0,Roscarbery.Co..Cork.
Irelands Ancient East,53.62759,-8.1891,British,Business Trips,0,Roscommon.Town.Co..Roscommon.
Irelands Ancient East,52.95518,-7.7985,British,Business Trips,0,Roscrea.Co..Tipperary.(Nth).
Wild Atlantic Way,55.1915,-7.8231,British,Business Trips,0,Rossapenna.Co..Donegal.
Wild Atlantic Way,53.27104,-9.5477,British,Business Trips,0,Rossaveal.Co..Galway.
Irelands Ancient East,52.05215,-9.9787,British,Business Trips,0,Rossbeigh.Co..Kerry.
Irelands Ancient East,54.30476,-8.564,British,Business Trips,0,Rosses.Point.Co..Sligo.
Irelands Ancient East,52.27203,-6.3892,British,Business Trips,0,Rosslare.Co..Wexford.
Wild Atlantic Way,53.39642,-9.919,British,Business Trips,0,Roundstone.Co..Galway.
Irelands Ancient East,53.06579,-6.2242,British,Business Trips,0,Roundwood.Co..Wicklow.
Dublin - Breath of Fresh Air,53.52567,-6.0912,British,Business Trips,0,Rush.Co..Dublin.
Irelands Ancient East,53.28084,-6.4432,British,Business Trips,0,Saggart.Co..Dublin.
Dublin - Breath of Fresh Air,53.28584,-6.1144,British,Business Trips,0,Sandycove.Co..Dublin.
Irelands Ancient East,52.90885,-8.5331,British,Business Trips,0,Scariff.Co..Clare.
Wild Atlantic Way,51.52687,-9.548,British,Business Trips,0,Schull.Co..Cork.
Irelands Ancient East,51.85271,-8.0299,British,Business Trips,0,Shanagarry.Co..Cork.
Irelands Ancient East,52.57198,-9.0981,British,Business Trips,0,Shanagolden.Co..Limerick.
Dublin - Breath of Fresh Air,53.23327,-6.1238,British,Business Trips,0,Shankill.Co..Dublin.
Irelands Ancient East,52.69064,-8.9171,British,Business Trips,2528,Shannon.Airport.Co..Clare.
Irelands Ancient East,52.71247,-8.8731,British,Business Trips,7571,Shannon.Town.Co..Clare.
Irelands Ancient East,52.66126,-8.6334,British,Business Trips,0,Shannonbridge.Co..Limerick.
Irelands Ancient East,53.99501,-6.898,British,Business Trips,0,Shercock.Co..Cavan.
Wild Atlantic Way,51.46605,-9.4176,British,Business Trips,0,Sherkin.Island.Co..Cork.
Irelands Ancient East,53.58055,-6.1079,British,Business Trips,0,Skerries.Co..Dublin.
Wild Atlantic Way,51.55592,-9.2621,British,Business Trips,2528,Skibbereen.Co..Cork.
Irelands Ancient East,53.70865,-6.5437,British,Business Trips,2047,Slane.Co..Meath.
Irelands Ancient East,54.2661,-8.5021,British,Business Trips,2312,Sligo.Head.Co..Sligo.
Irelands Ancient East,54.27661,-8.4761,British,Business Trips,3285,Sligo.Town.Co..Sligo.
Wild Atlantic Way,51.83739,-9.8983,British,Business Trips,2047,Sneem Co Kerry
Wild Atlantic Way,52.84664,-9.4397,British,Business Trips,0,Spanish.Point.Co..Clare.
Wild Atlantic Way,53.25317,-9.2818,British,Business Trips,0,Spiddal.Co..Galway.
Irelands Ancient East,53.63023,-6.2683,British,Business Trips,0,Stamullen.Co..Meath.
Irelands Ancient East,53.0158,-7.1495,British,Business Trips,0,Stradbally.Co..Laois.
Irelands Ancient East,53.98207,-7.2366,British,Business Trips,0,Stradone.Co..Cavan.
Irelands Ancient East,53.31189,-6.6088,British,Business Trips,0,Straffan.Co..Kildare.
Irelands Ancient East,54.26999,-8.5989,British,Business Trips,0,Strandhill.Co..Sligo.
Irelands Ancient East,54.80489,-7.7687,British,Business Trips,0,Stranolar.Co..Donegal.
Irelands Ancient East,52.98845,-6.6737,British,Business Trips,0,Stratford.Co..Wicklow.
Irelands Ancient East,53.43927,-7.5754,British,Business Trips,0,Streamstown.Co..Westmeath.
Irelands Ancient East,53.77587,-8.1035,British,Business Trips,0,Strokestown.Co..Roscommon.
Irelands Ancient East,53.10758,-6.8614,British,Business Trips,0,Suncroft.Co..Kildare.
Dublin - Breath of Fresh Air,53.38952,-6.1103,British,Business Trips,0,Sutton.Co..Dublin.
Irelands Ancient East,54.19376,-7.7047,British,Business Trips,0,Swanlinbar.Co..Cavan.
Irelands Ancient East,53.9437,-8.95,British,Business Trips,0,Swinford.Co..Mayo.
Dublin - Breath of Fresh Air,53.45575,-6.2197,British,Business Trips,0,Swords.Co..Dublin.
Dublin - Breath of Fresh Air,53.2888,-6.3557,British,Business Trips,0,Tallaght.Co..Dublin.
Irelands Ancient East,52.09214,-8.007,British,Business Trips,0,Tallow.Co..Waterford.
Irelands Ancient East,52.5726,-9.3751,British,Business Trips,0,Tarbert.Co..Kerry.
Irelands Ancient East,52.7948,-7.8399,British,Business Trips,0,Templemore.Co..Tipperary.
Irelands Ancient East,52.52708,-7.1388,British,Business Trips,0,Thomastown.Co..Kilkenny.
Irelands Ancient East,52.68011,-7.8044,British,Business Trips,0,Thurles.Co..Tipperary.
Wild Atlantic Way,51.6426,-8.7762,British,Business Trips,0,Timoleague.Co..Cork.
Irelands Ancient East,52.47473,-8.1544,British,Business Trips,0,Tipperary.Town.Co..Tipp.(South).
Irelands Ancient East,,,British,Business Trips,0,Toghan.Co..Louth.
Irelands Ancient East,53.64387,-9.3848,British,Business Trips,0,Tourmaheady.Co..Mayo.
Irelands Ancient East,52.27131,-9.6999,British,Business Trips,0,Tralee.Co..Kerry.
Irelands Ancient East,52.16144,-7.1493,British,Business Trips,997,Tramore.Co..Waterford.
Irelands Ancient East,53.55483,-6.7911,British,Business Trips,0,Trim.Co..Meath.
Irelands Ancient East,53.51799,-8.8556,British,Business Trips,0,Tuam.Co..Galway.
Irelands Ancient East,52.89852,-8.541,British,Business Trips,0,Tuamgreaney.Co..Clare.
Irelands Ancient East,54.05523,-8.7298,British,Business Trips,0,Tubbercurry.Co..Sligo.
Irelands Ancient East,52.86922,-8.7608,British,Business Trips,0,Tulla.Co..Clare.
Irelands Ancient East,53.27553,-7.4934,British,Business Trips,3587,Tullamore.Co..Offaly.
Irelands Ancient East,52.80255,-6.7372,British,Business Trips,0,Tullow.Co..Carlow.
Irelands Ancient East,53.0976,-9.0636,British,Business Trips,0,Turlough.Co..Clare.
Wild Atlantic Way,51.5588,-9.1435,British,Business Trips,0,Union.Hall.Co..Cork.
Irelands Ancient East,52.71975,-7.5839,British,Business Trips,0,Urlingford.Co..Tipperary.
Wild Atlantic Way,51.91077,-10.3549,British,Business Trips,0,Valentia.Island.Co..Kerry.
Wild Atlantic Way,52.13331,-10.3617,British,Business Trips,0,Ventry.Co..Kerry.
Irelands Ancient East,52.50314,-6.5537,British,Business Trips,0,Vinegar.Hill.Co..Wexford.
Irelands Ancient East,52.25932,-7.1101,British,Business Trips,9397,Waterford.Town.Co..Waterford.
Irelands Ancient East,52.01137,-8.344,British,Business Trips,0,Watergrasshill.Co..Cork.
Wild Atlantic Way,51.82947,-10.1745,British,Business Trips,0,Waterville.Co..Kerry.
Irelands Ancient East,52.26623,-6.7482,British,Business Trips,0,Wellington.Bridge.Co..Wexford.
Irelands Ancient East,53.80213,-9.5143,British,Business Trips,4421,Westport.Co..Mayo.
Irelands Ancient East,52.33692,-6.4633,British,Business Trips,9338,Wexford.Town.Co..Wexford.
Wild Atlantic Way,51.82678,-8.2321,British,Business Trips,0,Whitegate.Co..Cork.
Irelands Ancient East,52.98082,-6.0446,British,Business Trips,3524,Wicklow.Town.Co..Wicklow.
Irelands Ancient East,52.63284,-7.5218,British,Business Trips,0,Williamstown.Co..Tipperary.
Irelands Ancient East,52.19998,-6.9862,British,Business Trips,0,Woodstown.Co..Wexford.
Irelands Ancient East,51.95427,-7.8472,British,Business Trips,2528,Youghal.Co..Cork.
Wild Atlantic Way,52.34662,-9.6879,North American,Business Trips,0,Abbeydorney.Co..Kerry
Irelands Ancient East,52.38618,-9.2971,North American,Business Trips,628,Abbeyfeale.Co..Limerick.
Irelands Ancient East,52.91528,-7.3479,North American,Business Trips,0,Abbeyleix.Co..Laois.
Wild Atlantic Way,53.96195,-10.0153,North American,Business Trips,0,Achill.Island.Co..Mayo.
Irelands Ancient East,54.03646,-8.8967,North American,Business Trips,0,Aclare.Co.Sligo.
Irelands Ancient East,52.56402,-8.7912,North American,Business Trips,0,Adare.Co..Limerick.
Wild Atlantic Way,51.69712,-9.7296,North American,Business Trips,0,Adrigole.Co..Cork.
Irelands Ancient East,53.38813,-9.071,North American,Business Trips,0,Annadown.Co..Galway.
Wild Atlantic Way,52.15108,-10.0568,North American,Business Trips,0,Annascaul.Co..Kerry.
Irelands Ancient East,52.14059,-7.2719,North American,Business Trips,0,Annestown.Co..Waterford.
Wild Atlantic Way,53.09718,-9.6563,North American,Business Trips,0,Aran.Islands.Co..Galway.
Irelands Ancient East,53.67106,-7.6962,North American,Business Trips,0,Ardagh.Co.Longford
Wild Atlantic Way,54.76715,-8.4093,North American,Business Trips,0,Ardara.Co..Donegal.
Irelands Ancient East,53.85762,-6.54,North American,Business Trips,0,Ardee.Co.Louth.
Wild Atlantic Way,52.32695,-9.7807,North American,Business Trips,0,Ardfert.Co..Kerry.
Irelands Ancient East,51.95107,-7.7253,North American,Business Trips,0,Ardmore.Co..Waterford.
Irelands Ancient East,54.07634,-8.1125,North American,Business Trips,0,Arigna.Co..Roscommon.
Irelands Ancient East,52.79769,-6.1599,North American,Business Trips,0,Arklow.Co..Wicklow.
Wild Atlantic Way,54.98744,-8.5351,North American,Business Trips,0,Arranmore.Co..Donegal.
Irelands Ancient East,52.24202,-6.9514,North American,Business Trips,0,Arthurstown.Co..Wexford.
Irelands Ancient East,53.51116,-6.3974,North American,Business Trips,0,Ashbourne.Co..Meath.
Irelands Ancient East,53.01079,-6.1083,North American,Business Trips,0,Ashford.Co..Wicklow.
Irelands Ancient East,52.59545,-8.97,North American,Business Trips,0,Askeaton.Co..Limerick.
Irelands Ancient East,53.62363,-6.9156,North American,Business Trips,0,Athboy.Co..Meath.
Irelands Ancient East,52.99183,-6.9857,North American,Business Trips,0,Athea.Co..Kildare.
Irelands Ancient East,53.30434,-8.7502,North American,Business Trips,0,Athenry.Co..Galway.
Irelands Ancient East,53.42393,-7.9407,North American,Business Trips,1810,Athlone.Co..Westmeath.
Irelands Ancient East,52.99183,-6.9857,North American,Business Trips,0,Athy.Co..Kildare.
Irelands Ancient East,52.85593,-6.3259,North American,Business Trips,0,Aughrim.Co..Wicklow.
Irelands Ancient East,52.85796,-6.213,North American,Business Trips,0,Avoca.Co..Wicklow.
Irelands Ancient East,52.70311,-6.9559,North American,Business Trips,0,Bagenalstown.Co..Carlow.
Irelands Ancient East,53.9017,-8.5792,North American,Business Trips,0,Bailaghardereen.Co..Roscommon.
Irelands Ancient East,53.91561,-6.9693,North American,Business Trips,0,Bailieborough.Co..Cavan.
Irelands Ancient East,53.60832,-6.1821,North American,Business Trips,0,Balbriggan.Co..Dublin.
Dublin - Breath of Fresh Air,53.39867,-6.1273,North American,Business Trips,0,Baldoyle.Co..Dublin.
Irelands Ancient East,53.83753,-8.3794,North American,Business Trips,0,Ballangare.Co..Roscommon.
Irelands Ancient East,54.11495,-9.1551,North American,Business Trips,0,Ballina.Co..Mayo.
Irelands Ancient East,53.32876,-8.2269,North American,Business Trips,0,Ballinasloe.Co..Galway.
Irelands Ancient East,53.02514,-8.2208,North American,Business Trips,0,Ballinderry.Co..Tipperary.
Irelands Ancient East,53.66926,-8.9567,North American,Business Trips,0,Ballindine.Co..Mayo.
Irelands Ancient East,52.58766,-7.5471,North American,Business Trips,0,Ballingarry.Co..Tipperary.
Irelands Ancient East,53.53295,-6.9681,North American,Business Trips,0,Ballinivor.Co..Meath.
Irelands Ancient East,53.74189,-8.6336,North American,Business Trips,0,Ballinlough.Co..Roscommon.
Irelands Ancient East,53.62373,-9.2211,North American,Business Trips,0,Ballinrobe.Co..Mayo.
Wild Atlantic Way,51.8244,-10.273,North American,Business Trips,0,Ballinskelligs.Co..Kerry
Dublin - Breath of Fresh Air,53.27673,-6.2554,North American,Business Trips,0,Ballinteer.Co..Dublin.
Irelands Ancient East,54.20065,-8.365,North American,Business Trips,0,Ballintogher.Co..Sligo.
Irelands Ancient East,54.57885,-8.1243,North American,Business Trips,0,Ballintrae.Co..Donegal.
Irelands Ancient East,53.71809,-8.4101,North American,Business Trips,0,Ballintubber.Co..Roscommon.
Irelands Ancient East,54.21085,-8.5068,North American,Business Trips,0,Ballisodare.Co..Sligo.
Irelands Ancient East,54.12946,-6.9028,North American,Business Trips,0,Ballybay.Co..Monaghan.
Irelands Ancient East,54.79682,-7.7875,North American,Business Trips,0,Ballybofey.Co..Donegal.
Irelands Ancient East,53.11539,-7.154,North American,Business Trips,0,Ballybrittas.Co..Laois.
Wild Atlantic Way,52.51108,-9.671,North American,Business Trips,0,Ballybunion.Co..Kerry.
Wild Atlantic Way,54.27967,-9.3725,North American,Business Trips,0,Ballycastle.Co..Mayo.
Irelands Ancient East,54.11622,-7.584,North American,Business Trips,0,Ballyconnell.Co..Cavan.
Irelands Ancient East,51.82992,-8.0098,North American,Business Trips,0,Ballycotton.Co..Cork.
Irelands Ancient East,54.59066,-8.4221,North American,Business Trips,0,Ballycory.Co..Donegal.
Irelands Ancient East,53.32642,-7.6861,North American,Business Trips,0,Ballycumber.Co..Offaly.
Irelands Ancient East,52.06144,-9.135,North American,Business Trips,0,Ballydally.Co..Cork.
Wild Atlantic Way,51.56301,-9.4554,North American,Business Trips,0,Ballydehob.Co..Cork.
Wild Atlantic Way,52.45455,-9.6629,North American,Business Trips,0,Ballyduff.Co..Kerry.
Irelands Ancient East,52.1478,-8.0513,North American,Business Trips,0,Ballyduff.Co..Waterford.
Irelands Ancient East,53.79234,-9.2178,North American,Business Trips,0,Ballyfarna.Co..Mayo.
Wild Atlantic Way,52.163,-10.4229,North American,Business Trips,0,Ballyferriter.Co..Kerry.
Irelands Ancient East,53.52256,-8.3257,North American,Business Trips,0,Ballygar.Co..Galway.
Irelands Ancient East,52.55988,-9.1905,North American,Business Trips,0,Ballyhahill.Co..Limerick.
Irelands Ancient East,53.76284,-8.7646,North American,Business Trips,0,Ballyhaunis.Co..Mayo.
Wild Atlantic Way,52.39411,-9.8387,North American,Business Trips,0,Ballyheigue.Co..Kerry.
Irelands Ancient East,53.86387,-7.2065,North American,Business Trips,0,Ballyjamesduff.Co..Cavan.
Irelands Ancient East,52.37107,-8.346,North American,Business Trips,0,Ballylanders.Co..Limerick.
Irelands Ancient East,51.72154,-9.4378,North American,Business Trips,0,Ballylickey.Co..Cork.
Wild Atlantic Way,55.27844,-7.3942,North American,Business Trips,0,Ballyliffen.Co..Donegal.
Wild Atlantic Way,52.548,-9.4788,North American,Business Trips,0,Ballylongford.Co..Kerry.
Irelands Ancient East,53.56436,-7.7646,North American,Business Trips,0,Ballymahon.Co..Longford.
Irelands Ancient East,53.69403,-8.4618,North American,Business Trips,0,Ballymoe.Co..Galway.
Irelands Ancient East,52.68246,-6.2212,North American,Business Trips,0,Ballymoney.Co..Wexford.
Wild Atlantic Way,52.27455,-10.1621,North American,Business Trips,0,Ballymore.Co..Kerry.
Irelands Ancient East,53.49091,-7.6797,North American,Business Trips,0,Ballymore.Co..Westmeath.
Irelands Ancient East,53.13301,-6.6149,North American,Business Trips,0,Ballymoreustace.Co..Kildare.
Irelands Ancient East,54.08983,-8.5172,North American,Business Trips,0,Ballymote.Co.Sligo.
Wild Atlantic Way,51.73564,-8.9508,North American,Business Trips,0,Ballyneen.Co..Cork.
Wild Atlantic Way,52.25798,-10.1628,North American,Business Trips,0,Ballyquin.Co..Kerry.
Irelands Ancient East,52.78867,-7.3338,North American,Business Trips,0,Ballyraggart.Co.Kilkenny.
Irelands Ancient East,54.50299,-8.192,North American,Business Trips,0,Ballyshannon.Co..Donegal.
Irelands Ancient East,52.65558,-8.572,North American,Business Trips,0,Ballysheedy.Co..Limerick.
Wild Atlantic Way,53.11553,-9.1494,North American,Business Trips,0,Ballyvaughan.Co..Clare.
Irelands Ancient East,53.62462,-6.4793,North American,Business Trips,0,Balrath.Co..Meath.
Wild Atlantic Way,51.48433,-9.3661,North American,Business Trips,0,Baltimore.Co..Cork.
Irelands Ancient East,52.94078,-6.711,North American,Business Trips,0,Baltinglass.Co..Wicklow.
Irelands Ancient East,53.18646,-7.9954,North American,Business Trips,0,Banagher.Co..Offaly.
Wild Atlantic Way,51.74612,-8.7318,North American,Business Trips,0,Bandon.Co..Cork.
Irelands Ancient East,52.12832,-8.9073,North American,Business Trips,0,Banteer.Co..Cork.
Irelands Ancient East,51.68089,-9.4486,North American,Business Trips,0,Bantry.Co..Cork.
Wild Atlantic Way,51.4698,-9.7812,North American,Business Trips,0,Barleycove.Co..Cork.
Irelands Ancient East,54.12125,-7.6768,North American,Business Trips,0,Bawnboy.Co..Cavan.
Irelands Ancient East,53.42426,-7.9656,North American,Business Trips,0,Baylough.Co..Westmeath.
Wild Atlantic Way,51.7369,-8.4816,North American,Business Trips,0,Belgooly.Co..Cork.
Wild Atlantic Way,54.2239,-9.9876,North American,Business Trips,0,Belmullet.Co..Mayo.
Irelands Ancient East,54.10191,-7.4497,North American,Business Trips,0,Belturbet.Co..Cavan.
Wild Atlantic Way,51.63324,-9.8669,North American,Business Trips,0,Bere.Island.Co..Cork.
Irelands Ancient East,53.09801,-7.9097,North American,Business Trips,0,Birr.Co..Offaly.
Irelands Ancient East,54.29206,-7.8751,North American,Business Trips,0,Blacklion.Co..Cavan.
Dublin - Breath of Fresh Air,53.30079,-6.1771,North American,Business Trips,0,Blackrock.Co..Dublin.
Irelands Ancient East,52.44735,-6.3469,North American,Business Trips,0,Blackwater.Co..Wexford.
Irelands Ancient East,51.93436,-8.567,North American,Business Trips,0,Blarney.Co..Cork.
Irelands Ancient East,53.16966,-6.5341,North American,Business Trips,0,Blessington.Co..Wicklow.
Dublin - Breath of Fresh Air,53.30882,-6.1967,North American,Business Trips,0,Booterstown.Co..Dublin.
Irelands Ancient East,52.93918,-7.6311,North American,Business Trips,0,Borris-in-Ossary.Co..Laois.
Irelands Ancient East,52.99637,-8.1273,North American,Business Trips,0,Borrisokane.Co.Tipperary.
Irelands Ancient East,53.97221,-8.2973,North American,Business Trips,0,Boyle.Co..Roscommon.
Dublin - Breath of Fresh Air,53.2009,-6.1111,North American,Business Trips,0,Bray.Co..Wicklow.
Irelands Ancient East,55.04224,-7.3822,North American,Business Trips,0,Bridge.End.Co..Donegal.
Irelands Ancient East,52.88536,-6.062,North American,Business Trips,0,Brittas.Bay.Co..Wicklow.
Irelands Ancient East,53.2279,-6.4476,North American,Business Trips,0,Brittas.Co..Dublin.
Irelands Ancient East,52.80603,-8.6329,North American,Business Trips,0,Broadford.Co..Clare.
Irelands Ancient East,52.21909,-6.3872,North American,Business Trips,0,Broadway.Co..Wexford.
Irelands Ancient East,52.31271,-9.2707,North American,Business Trips,0,Brosna.Co..Kerry.
Irelands Ancient East,52.47849,-8.5423,North American,Business Trips,0,Bruff.Co..Limerick.
Irelands Ancient East,52.42429,-8.662,North American,Business Trips,0,Bruree.Co..Limerick.
Irelands Ancient East,52.65509,-6.6522,North American,Business Trips,0,Bunclody.Co..Wexford.
Irelands Ancient East,55.13465,-7.4534,North American,Business Trips,0,Buncrana.Co..Donegal.
Irelands Ancient East,54.47914,-8.2779,North American,Business Trips,0,Bundoran.Co..Donegal.
Irelands Ancient East,52.14055,-7.3652,North American,Business Trips,0,Bunmahon.Co..Waterford.
Irelands Ancient East,52.69887,-8.8111,North American,Business Trips,0,Bunratty.Co..Clare.
Irelands Ancient East,53.1486,-9.0741,North American,Business Trips,0,Burren.Co.Clare
Irelands Ancient East,52.23213,-8.6701,North American,Business Trips,0,Buttevant.Co..Cork.
Irelands Ancient East,54.04521,-7.377,North American,Business Trips,0,Buttlersbridge.Co..Cavan.
Dublin - Breath of Fresh Air,53.2637,-6.1663,North American,Business Trips,0,Cabinteely.Co..Dublin.
Wild Atlantic Way,51.76901,-10.0995,North American,Business Trips,0,Caherdaniel.Co..Kerry.
Irelands Ancient East,52.37453,-7.9252,North American,Business Trips,0,Cahir.Co..Tipperary.
Wild Atlantic Way,51.9478,-10.2209,North American,Business Trips,0,Cahirciveen.Co..Kerry.
Irelands Ancient East,52.54482,-7.392,North American,Business Trips,0,Callan.Co..Kilkenny.
Irelands Ancient East,52.61568,-6.4263,North American,Business Trips,0,Camolin.Co..Wexford.
Irelands Ancient East,52.14643,-7.8516,North American,Business Trips,0,Cappaquinn.Co..Waterford.
Irelands Ancient East,54.04267,-6.187,North American,Business Trips,0,Carlingford.Co..Louth.
Irelands Ancient East,52.83651,-6.9341,North American,Business Trips,1562,Carlow.Co..Carlow.
Wild Atlantic Way,53.32422,-9.8361,North American,Business Trips,0,Carna.Co..Galway.
Irelands Ancient East,52.70967,-6.4992,North American,Business Trips,0,Carnew.Co..Wicklow.
Wild Atlantic Way,53.26411,-9.5983,North American,Business Trips,0,Carraroe.Co..Galway.
Wild Atlantic Way,54.65772,-8.6327,North American,Business Trips,0,Carrick.Co..Donegal.
Irelands Ancient East,53.94519,-8.0855,North American,Business Trips,0,Carrick-on-Shannon.Co..Leitrim.
Irelands Ancient East,52.34765,-7.419,North American,Business Trips,0,Carrick-on-Suir.Co..Tipperary.
Irelands Ancient East,53.97798,-6.7188,North American,Business Trips,0,Carrickmacross.Co..Monaghan.
Dublin - Breath of Fresh Air,53.2472,-6.1829,North American,Business Trips,0,Carrickmines.Co..Dublin.
Irelands Ancient East,51.90398,-8.8652,North American,Business Trips,0,Carrigadroghid.Co..Cork.
Wild Atlantic Way,52.60479,-9.7097,North American,Business Trips,0,Carrigaholt.Co..Clare.
Wild Atlantic Way,51.81791,-8.3915,North American,Business Trips,0,Carrigaline.Co..Cork.
Irelands Ancient East,53.97694,-7.6443,North American,Business Trips,0,Carrigallen.Co..Leitrim.
Wild Atlantic Way,51.91055,-8.26,North American,Business Trips,0,Carrigtwohill.Co..Cork.
Irelands Ancient East,53.25976,-9.1013,North American,Business Trips,0,Cashel.Bay.Co..Galway.
Irelands Ancient East,52.51676,-7.8877,North American,Business Trips,0,Cashel.Co..Tipperary.
Irelands Ancient East,53.855,-9.2879,North American,Business Trips,0,Castlebar.Co..Mayo.
Irelands Ancient East,53.89786,-6.3894,North American,Business Trips,0,Castlebellingham.Co..Louth.
Irelands Ancient East,54.12066,-6.7397,North American,Business Trips,0,Castleblaney.Co..Monaghan.
Irelands Ancient East,53.43055,-8.4793,North American,Business Trips,0,Castleblarney.Co..Galway.
Irelands Ancient East,52.38243,-6.4503,North American,Business Trips,0,Castlebridge.Co..Wexford.
Irelands Ancient East,52.80662,-7.216,North American,Business Trips,0,Castlecomer.Co..Kilkenny.
Irelands Ancient East,52.71566,-8.4932,North American,Business Trips,0,Castleconnell.Co..Limerick.
Wild Atlantic Way,51.77912,-10.0367,North American,Business Trips,0,Castlecove.Co..Kerry.
Irelands Ancient East,52.90896,-6.8474,North American,Business Trips,0,Castledermot.Co..Kildare.
Wild Atlantic Way,52.25347,-10.0207,North American,Business Trips,0,Castlegregory.Co..Kerry.
Irelands Ancient East,52.2329,-9.4601,North American,Business Trips,0,Castleisland.Co..Kerry.
Dublin - Breath of Fresh Air,53.37365,-6.3584,North American,Business Trips,0,Castleknock.Co..Dublin.
Irelands Ancient East,52.08857,-8.2337,North American,Business Trips,0,Castlelyons.Co..Cork.
Irelands Ancient East,52.16843,-9.7015,North American,Business Trips,0,Castlemaine.Co..Kerry.
Irelands Ancient East,51.91195,-8.0535,North American,Business Trips,0,Castlemartyr.Co..Cork.
Irelands Ancient East,53.68007,-7.2965,North American,Business Trips,0,Castlepollard.Co..Westmeath.
Irelands Ancient East,53.76866,-8.4925,North American,Business Trips,0,Castlerea.Co..Roscommon.
Wild Atlantic Way,51.6515,-9.9103,North American,Business Trips,0,Castletownbere.Co..Cork.
Irelands Ancient East,52.17311,-8.4634,North American,Business Trips,0,Castletownroche.Co..Cork.
Wild Atlantic Way,52.41442,-9.7331,North American,Business Trips,0,Causeway.Co..Kerry.
Irelands Ancient East,53.98972,-7.3633,North American,Business Trips,1082,Cavan.Co..Cavan.
Irelands Ancient East,53.3399,-6.5385,North American,Business Trips,0,Celbridge.Co..Kildare.
Dublin - Breath of Fresh Air,53.34784,-6.3462,North American,Business Trips,0,Chapelizod.Co..Dublin.
Irelands Ancient East,53.96403,-8.7926,North American,Business Trips,0,Charlestown.Co..Mayo.
Irelands Ancient East,52.35491,-8.6832,North American,Business Trips,3348,Charleville.Co..Cork.
Irelands Ancient East,54.98932,-7.8915,North American,Business Trips,0,Churchill.Co..Donegal.
Irelands Ancient East,52.13464,-6.9259,North American,Business Trips,0,Churchtown.Co..Wexford.
Irelands Ancient East,53.34251,-7.6135,North American,Business Trips,0,Clara.Co..Offaly.
Wild Atlantic Way,53.80448,-9.9951,North American,Business Trips,0,Clare.Island.Co..Mayo.
Irelands Ancient East,52.81474,-8.9643,North American,Business Trips,0,Clarecastle.Co..Clare.
Irelands Ancient East,53.72388,-9.0017,North American,Business Trips,0,Claremorris.Co..Mayo.
Wild Atlantic Way,51.4388,-9.4923,North American,Business Trips,0,Clear.Island.Co..Mayo.
Wild Atlantic Way,53.48899,-10.0179,North American,Business Trips,0,Clifden.Co..Galway.
Irelands Ancient East,,,North American,Business Trips,0,Clifforney.Co..Offaly.
Wild Atlantic Way,52.23092,-10.2193,North American,Business Trips,0,Cloghane.Co..Kerry.
Irelands Ancient East,52.27708,-7.9951,North American,Business Trips,0,Clogheen.Co..Tipperary.
Wild Atlantic Way,51.62151,-8.8887,North American,Business Trips,0,Clonakilty.Co..Cork.
Dublin - Breath of Fresh Air,53.32174,-6.3952,North American,Business Trips,0,Clondalkin.Co..Dublin.
Irelands Ancient East,,,North American,Business Trips,0,Clonee.Co..Waterford.
Irelands Ancient East,54.17968,-7.2307,North American,Business Trips,0,Clones.Co..Monaghan.
Irelands Ancient East,52.35582,-7.6903,North American,Business Trips,1082,Clonmel.Co..Tipperary.
Irelands Ancient East,53.66407,-7.0184,North American,Business Trips,0,Clonmellan.Co..Westmeath.
Dublin - Breath of Fresh Air,53.36602,-6.2045,North American,Business Trips,0,Clontarf.Co..Dublin.
Irelands Ancient East,54.20544,-6.8415,North American,Business Trips,0,Clontibret.Co..Monaghan.
Irelands Ancient East,52.21989,-6.7212,North American,Business Trips,0,Clonystown.Co..Wexford.
Wild Atlantic Way,54.83826,-8.411,North American,Business Trips,0,Clooney.Co..Donegal.
Irelands Ancient East,,,North American,Business Trips,0,Coalisland.Co..Kerry.
Wild Atlantic Way,51.85034,-8.2943,North American,Business Trips,0,Cobh.Co..Cork.
Irelands Ancient East,53.64747,-7.2122,North American,Business Trips,0,Collinstown.Co..Westmeath.
Irelands Ancient East,54.18033,-8.4988,North American,Business Trips,0,Colooney.Co.Sligo.
Irelands Ancient East,53.54168,-9.2835,North American,Business Trips,1082,Cong.Co..Mayo.
Wild Atlantic Way,53.59477,-9.8448,North American,Business Trips,0,Connemara.Co.Galway.
Irelands Ancient East,,,North American,Business Trips,0,Cookstown.Co..Clare.
Irelands Ancient East,54.0725,-7.0824,North American,Business Trips,0,Cootehill.Co..Cavan.
Wild Atlantic Way,51.89689,-8.4863,North American,Business Trips,16874,Cork.City.Co..Cork.
Irelands Ancient East,52.91334,-9.126,North American,Business Trips,0,Corofin.Co..Clare.
Wild Atlantic Way,53.28794,-9.55,North American,Business Trips,0,Costelloe.Co..Galway.
Irelands Ancient East,54.71928,-6.2082,North American,Business Trips,0,County.Antrim.
Irelands Ancient East,54.35007,-6.6523,North American,Business Trips,0,County.Armagh
Irelands Ancient East,52.74558,-7.0266,North American,Business Trips,0,Carlow.(Rest.of County).
Irelands Ancient East,53.84926,-7.2557,North American,Business Trips,0,Cavan.(Rest.of County).
Irelands Ancient East,52.8537,-8.9975,North American,Business Trips,0,Clare.(Rest.of County).
Wild Atlantic Way,51.85037,-8.3014,North American,Business Trips,1703,Cork.(Rest.of County).
Irelands Ancient East,54.96908,-7.1958,North American,Business Trips,0,County.Derry
Irelands Ancient East,54.4759,-8.2981,North American,Business Trips,0,Donegal.(Rest.of County).
Irelands Ancient East,54.3277,-5.7158,North American,Business Trips,0,County.Down
Dublin - Breath of Fresh Air,53.25563,-6.127,North American,Business Trips,12542,Dublin.(Rest.of).
Irelands Ancient East,54.34383,-7.6319,North American,Business Trips,0,County.Fermanagh
Irelands Ancient East,53.06422,-8.8151,North American,Business Trips,5941,Galway.(Rest.of County).
Irelands Ancient East,,,North American,Business Trips,0,Kerry.(Rest.of).
Irelands Ancient East,53.16913,-6.6987,North American,Business Trips,1703,Kildare.County.(Rest.of).
Irelands Ancient East,52.26246,-7.0832,North American,Business Trips,1082,Kilkenny.County. (Rest.of).
Irelands Ancient East,52.86094,-6.8803,North American,Business Trips,0,Laois.County.(Rest.of).
Irelands Ancient East,54.4759,-8.2981,North American,Business Trips,0,Leitrim.County.(Rest.of).
Irelands Ancient East,52.56396,-8.7934,North American,Business Trips,0,Limerick.Co..(Rest.of).
Irelands Ancient East,53.84164,-7.7043,North American,Business Trips,0,Longford.Co..(Rest.of).
Irelands Ancient East,53.82734,-6.5333,North American,Business Trips,0,Louth.Co..(Rest.of).
Irelands Ancient East,53.66949,-9.2029,North American,Business Trips,0,Mayo.Co..(Rest.of).
Irelands Ancient East,53.62974,-6.2624,North American,Business Trips,0,Meath.Co..(Rest.of).
Irelands Ancient East,53.97969,-6.7281,North American,Business Trips,0,Monaghan.Co..(Rest.of).
Irelands Ancient East,53.22646,-7.8829,North American,Business Trips,0,Offaly.Co..(Rest.of).
Irelands Ancient East,53.77441,-8.2409,North American,Business Trips,0,Roscommon.Co..(Rest.of).
Irelands Ancient East,54.4759,-8.2981,North American,Business Trips,0,Sligo.(Rest.of).
Irelands Ancient East,52.47379,-8.1619,North American,Business Trips,0,Tipperary.(Rest.Of).North.Riding.
Irelands Ancient East,,,North American,Business Trips,0,Tipperary.(Rest.Of).South.Riding.
Irelands Ancient East,,,North American,Business Trips,0,County.Tyrone
Irelands Ancient East,52.12929,-8.0042,North American,Business Trips,0,Waterford.County.(Rest.of).
Irelands Ancient East,53.50746,-7.1465,North American,Business Trips,0,Westmeath.County.(Rest.of).
Irelands Ancient East,52.71736,-6.3506,North American,Business Trips,0,Wexford.County.(Rest.of).
Irelands Ancient East,52.86208,-6.2961,North American,Business Trips,1478,Wicklow.County.(Rest.of).
Wild Atlantic Way,51.63386,-8.7059,North American,Business Trips,0,Courtmacsherry.Co.Cork.
Irelands Ancient East,52.64486,-6.2286,North American,Business Trips,0,Courtown.Co..Wexford.
Irelands Ancient East,52.69968,-8.7666,North American,Business Trips,0,Cratloe.Co..Clare.
Wild Atlantic Way,52.74633,-9.4301,North American,Business Trips,0,Cree.Co..Clare.
Wild Atlantic Way,55.12055,-7.9139,North American,Business Trips,0,Cresslough.Co..Donegal.
Wild Atlantic Way,51.46696,-9.7282,North American,Business Trips,0,Crookhaven.Co..Cork.
Irelands Ancient East,52.51896,-8.7182,North American,Business Trips,0,Croom.Co..Limerick.
Wild Atlantic Way,52.59862,-9.7747,North American,Business Trips,0,Cross.Co..Clare.
Wild Atlantic Way,51.80347,-8.3016,North American,Business Trips,0,Crosshaven.Co..Cork.
Irelands Ancient East,53.71412,-7.0205,North American,Business Trips,0,Crosskiel.Co..Meath.
Wild Atlantic Way,54.10034,-9.3158,North American,Business Trips,0,Crossmolina.Co..Mayo.
Irelands Ancient East,52.93865,-8.8968,North American,Business Trips,0,Crusheen.Co..Clare.
Wild Atlantic Way,55.28594,-7.1651,North American,Business Trips,0,Culdaff.Co..Donegal.
Irelands Ancient East,52.11186,-9.1211,North American,Business Trips,0,Cullen.Co..Cork.
Irelands Ancient East,54.0887,-6.2619,North American,Business Trips,0,Cullen.Co..Louth.
Irelands Ancient East,52.39318,-6.3921,North American,Business Trips,0,Curracloe.Co..Wexford.
Irelands Ancient East,53.14203,-6.8286,North American,Business Trips,0,Curragh.Co..Kildare.
Irelands Ancient East,53.65222,-8.6629,North American,Business Trips,0,Curragh.West.Co..Galway.
Dublin - Breath of Fresh Air,53.27791,-6.1058,North American,Business Trips,0,Dalkey.Co..Dublin.
Dublin - Breath of Fresh Air,53.13261,-6.0923,North American,Business Trips,0,Delgany.Co..Wicklow.
Irelands Ancient East,53.61257,-7.0917,North American,Business Trips,0,Delvin.Co..Westmeath.
Wild Atlantic Way,51.7654,-10.1209,North American,Business Trips,0,Derrynane.Co..Kerry.
Wild Atlantic Way,52.13876,-10.2705,North American,Business Trips,0,Dingle.Co.Kerry.
Dublin - Breath of Fresh Air,53.48534,-6.1504,North American,Business Trips,0,Donabate.Co..Dublin.
Irelands Ancient East,54.6542,-8.1105,North American,Business Trips,544,Donegal.Town.Co..Donegal.
Irelands Ancient East,52.21517,-8.586,North American,Business Trips,0,Doneraile.Co..Cork.
Irelands Ancient East,,,North American,Business Trips,0,Doohoma.Co..Clare.
Wild Atlantic Way,53.01744,-9.373,North American,Business Trips,2424,Doolin.Co..Clare.
Wild Atlantic Way,52.73085,-9.526,North American,Business Trips,0,Doonbeg.Co..Clare.
Wild Atlantic Way,52.93083,-9.3439,North American,Business Trips,0,Downings.Co..Clare.
Irelands Ancient East,54.19388,-8.0252,North American,Business Trips,0,Dowra.Co..Cavan.
Wild Atlantic Way,51.65994,-9.2612,North American,Business Trips,0,Drimoleague.Co..Cork.
Irelands Ancient East,51.91438,-8.7421,North American,Business Trips,0,Dripsey.Co..Cork.
Irelands Ancient East,53.71786,-6.3561,North American,Business Trips,0,Drogheda.Co..Louth.
Irelands Ancient East,54.23067,-8.3026,North American,Business Trips,0,Dromahair.Co..Leitrim.
Irelands Ancient East,52.7828,-8.9038,North American,Business Trips,0,Dromoland.Co..Clare.
Irelands Ancient East,54.10388,-7.1434,North American,Business Trips,0,Drum.Co..Monaghan.
Irelands Ancient East,54.32705,-8.4976,North American,Business Trips,0,Drumcliffe.Co..Sligo.
Irelands Ancient East,53.8516,-6.6563,North American,Business Trips,0,Drumconrath.Co..Meath.
Irelands Ancient East,54.16941,-8.1427,North American,Business Trips,0,Drumkeerin.Co..Leitrim.
Irelands Ancient East,54.0478,-8.04,North American,Business Trips,0,Drumshanbo.Co..Leitrim.
Irelands Ancient East,53.92692,-8.0079,North American,Business Trips,0,Drumsna.Co..Limerick.
Irelands Ancient East,52.41479,-9.3902,North American,Business Trips,0,Duagh.Co..Kerry.
Dublin - Breath of Fresh Air,53.34981,-6.2603,North American,Business Trips,98233,Dublin.City.Co..Dublin.
Dublin - Breath of Fresh Air,53.2944,-6.1339,North American,Business Trips,1478,Dun Laoghaire.Co..Dublin.
Irelands Ancient East,53.65475,-6.4222,North American,Business Trips,0,Duleek.Co..Meath.
Irelands Ancient East,53.41927,-6.4759,North American,Business Trips,0,Dunboyne.Co..Meath.
Irelands Ancient East,52.22854,-6.6551,North American,Business Trips,0,Duncormack.Co..Wexford.
Irelands Ancient East,53.99795,-6.406,North American,Business Trips,544,Dundalk.Co..Louth
Irelands Ancient East,,,North American,Business Trips,0,Dundrum.Co..Clare.
Irelands Ancient East,52.55952,-8.0432,North American,Business Trips,0,Dundrum.Co..Tipperary.
Wild Atlantic Way,55.18347,-7.9694,North American,Business Trips,0,Dunfanaghy.Co..Donegal.
Irelands Ancient East,52.09368,-7.6204,North American,Business Trips,0,Dungarvan.Co..Waterford.
Wild Atlantic Way,54.95029,-8.3574,North American,Business Trips,0,Dungloe.Co..Donegal.
Irelands Ancient East,53.05788,-6.7016,North American,Business Trips,0,Dunlavin.Co..Wicklow.
Irelands Ancient East,53.83105,-6.3945,North American,Business Trips,0,Dunleer.Co..Louth.
Wild Atlantic Way,51.72226,-9.1118,North American,Business Trips,0,Dunmanway.Co..Cork.
Irelands Ancient East,52.15277,-6.9948,North American,Business Trips,0,Dunmore.East.Co..Waterford.
Irelands Ancient East,52.05467,-9.5103,North American,Business Trips,0,Dunmore.Co..Kerry.
Wild Atlantic Way,52.13007,-10.4503,North American,Business Trips,0,Dunquin.Co..Kerry.
Irelands Ancient East,53.51352,-6.5403,North American,Business Trips,0,Dunshaughlin.Co..Meath.
Wild Atlantic Way,51.62171,-9.522,North American,Business Trips,0,Durrus.Co..Cork.
Irelands Ancient East,54.28633,-8.9624,North American,Business Trips,0,Easkey.Co..Sligo.
Irelands Ancient East,53.34328,-7.0506,North American,Business Trips,0,Edenderry.Co..Offaly.
Irelands Ancient East,53.85227,-8.1978,North American,Business Trips,0,Elphin.Co..Roscommon.
Irelands Ancient East,52.46392,-8.3513,North American,Business Trips,0,Emly.Co..Tipperary.
Irelands Ancient East,54.34054,-6.9676,North American,Business Trips,0,Emyvale.Co..Monaghan.
Irelands Ancient East,53.4142,-6.8297,North American,Business Trips,0,Enfield.Co..Meath.
Irelands Ancient East,52.84743,-8.9887,North American,Business Trips,0,Ennis.Co..Clare.
Irelands Ancient East,52.5022,-6.5661,North American,Business Trips,0,Enniscorthy.Co..Wexford.
Irelands Ancient East,54.21285,-9.0932,North American,Business Trips,0,Enniscrone.Co..Sligo.
Wild Atlantic Way,51.73936,-8.9269,North American,Business Trips,0,Enniskean.Co..Cork.
Dublin - Breath of Fresh Air,53.1935,-6.1707,North American,Business Trips,653,Enniskerry.Co..Wicklow.
Wild Atlantic Way,52.94037,-9.2935,North American,Business Trips,848,Ennistymon.Co..Clare.
Wild Atlantic Way,55.2,-7.7,North American,Business Trips,0,Fanad.Co..Donegal.
Irelands Ancient East,52.17199,-9.5505,North American,Business Trips,0,Farranfore.Co..Kerry.
Irelands Ancient East,52.92557,-8.6375,North American,Business Trips,0,Feakle.Co..Clare.
Wild Atlantic Way,52.27841,-9.8612,North American,Business Trips,0,Fenit.Co..Kerry.
Irelands Ancient East,52.13936,-8.2756,North American,Business Trips,0,Fermoy.Co..Cork.
Irelands Ancient East,52.59093,-6.498,North American,Business Trips,0,Ferns.Co..Wexford.
Irelands Ancient East,52.35491,-6.5139,North American,Business Trips,0,Ferrycarrig.Co..Wexford.
Irelands Ancient East,52.47098,-7.6968,North American,Business Trips,0,Fethard.Co..Tipperary.
Irelands Ancient East,52.1923,-6.8402,North American,Business Trips,0,Fetherd-on-Sea.Co..Wexford.
Irelands Ancient East,53.77996,-7.3885,North American,Business Trips,0,Finea.Co..Westmeath.
Irelands Ancient East,52.31388,-6.7512,North American,Business Trips,0,Foulksmith.Co..Wexford.
Irelands Ancient East,53.98077,-9.1132,North American,Business Trips,0,Foxford.Co..Mayo.
Irelands Ancient East,53.59132,-9.0077,North American,Business Trips,0,Foxhall.Co.Galway
Dublin - Breath of Fresh Air,53.26858,-6.183,North American,Business Trips,0,Foxrock.Co.Dublin
Irelands Ancient East,52.61053,-9.1051,North American,Business Trips,0,Foynes.Co..Limerick.
Irelands Ancient East,53.86951,-8.4074,North American,Business Trips,0,Frenchpark.Co..Roscommon.
Irelands Ancient East,52.73251,-7.3969,North American,Business Trips,0,Freshford.Co..Kilkenny.
Irelands Ancient East,53.26257,-9.0704,North American,Business Trips,23470,Galway City-Salthill.Co..Galway.
Wild Atlantic Way,51.64922,-8.6027,North American,Business Trips,0,Garrettstown.Co..Cork.
Irelands Ancient East,51.87198,-8.016,North American,Business Trips,0,Garryvoe.Co..Cork.
Wild Atlantic Way,51.56651,-9.121,North American,Business Trips,0,Glandore.Co..Cork.
Dublin - Breath of Fresh Air,53.28791,-6.126,North American,Business Trips,0,Glasthule.Co..Dublin.
Dublin - Breath of Fresh Air,53.28129,-6.1238,North American,Business Trips,0,Glenageary.Co..Dublin.
Irelands Ancient East,53.60555,-8.5604,North American,Business Trips,0,Glenamady.Co..Galway.
Irelands Ancient East,52.05619,-9.9403,North American,Business Trips,0,Glenbeigh.Co..Kerry.
Irelands Ancient East,54.28767,-8.1304,North American,Business Trips,0,Glenboy.Co..Leitrim.
Irelands Ancient East,51.99447,-9.858,North American,Business Trips,0,Glencar.Co..Kerry.
Wild Atlantic Way,54.70809,-8.7295,North American,Business Trips,0,Glencolumbkille.Co..Donegal.
Dublin - Breath of Fresh Air,53.20059,-6.2924,North American,Business Trips,0,Glencree.Co..Wicklow.
Irelands Ancient East,53.01198,-6.3298,North American,Business Trips,0,Glendalough.Co..Wicklow.
Irelands Ancient East,52.96663,-6.1446,North American,Business Trips,0,Glenealy.Co..Wicklow.
Irelands Ancient East,51.75003,-9.5522,North American,Business Trips,0,Glengarriff.Co..Cork.
Wild Atlantic Way,54.79717,-8.283,North American,Business Trips,0,Glenties.Co..Donegal.
Irelands Ancient East,52.57191,-9.285,North American,Business Trips,0,Glin.Co..Limerick.
Irelands Ancient East,53.65069,-8.4315,North American,Business Trips,0,Glinsk.Co..Galway.
Wild Atlantic Way,51.49288,-9.7106,North American,Business Trips,0,Goleen.Co..Cork.
Irelands Ancient East,52.58995,-7.9595,North American,Business Trips,0,Gooldscross.Co..Tipperary.
Irelands Ancient East,52.67574,-6.2943,North American,Business Trips,0,Gorey.Co..Wexford.
Wild Atlantic Way,52.34662,-9.6879,British,Holiday Trips,0,Abbeydorney.Co..Kerry
Irelands Ancient East,52.38618,-9.2971,British,Holiday Trips,936,Abbeyfeale.Co..Limerick.
Irelands Ancient East,52.91528,-7.3479,British,Holiday Trips,851,Abbeyleix.Co..Laois.
Wild Atlantic Way,53.96195,-10.0153,British,Holiday Trips,4892,Achill.Island.Co..Mayo.
Irelands Ancient East,54.03646,-8.8967,British,Holiday Trips,0,Aclare.Co.Sligo.
Irelands Ancient East,52.56402,-8.7912,British,Holiday Trips,1787,Adare.Co..Limerick.
Wild Atlantic Way,51.69712,-9.7296,British,Holiday Trips,730,Adrigole.Co..Cork.
Irelands Ancient East,53.38813,-9.071,British,Holiday Trips,0,Annadown.Co..Galway.
Wild Atlantic Way,52.15108,-10.0568,British,Holiday Trips,0,Annascaul.Co..Kerry.
Irelands Ancient East,52.14059,-7.2719,British,Holiday Trips,0,Annestown.Co..Waterford.
Wild Atlantic Way,53.09718,-9.6563,British,Holiday Trips,1453,Aran.Islands.Co..Galway.
Irelands Ancient East,53.67106,-7.6962,British,Holiday Trips,0,Ardagh.Co.Longford
Wild Atlantic Way,54.76715,-8.4093,British,Holiday Trips,1453,Ardara.Co..Donegal.
Irelands Ancient East,53.85762,-6.54,British,Holiday Trips,2885,Ardee.Co.Louth.
Wild Atlantic Way,52.32695,-9.7807,British,Holiday Trips,0,Ardfert.Co..Kerry.
Irelands Ancient East,51.95107,-7.7253,British,Holiday Trips,2885,Ardmore.Co..Waterford.
Irelands Ancient East,54.07634,-8.1125,British,Holiday Trips,0,Arigna.Co..Roscommon.
Irelands Ancient East,52.79769,-6.1599,British,Holiday Trips,0,Arklow.Co..Wicklow.
Wild Atlantic Way,54.98744,-8.5351,British,Holiday Trips,0,Arranmore.Co..Donegal.
Irelands Ancient East,52.24202,-6.9514,British,Holiday Trips,0,Arthurstown.Co..Wexford.
Irelands Ancient East,53.51116,-6.3974,British,Holiday Trips,0,Ashbourne.Co..Meath.
Irelands Ancient East,53.01079,-6.1083,British,Holiday Trips,0,Ashford.Co..Wicklow.
Irelands Ancient East,52.59545,-8.97,British,Holiday Trips,0,Askeaton.Co..Limerick.
Irelands Ancient East,53.62363,-6.9156,British,Holiday Trips,851,Athboy.Co..Meath.
Irelands Ancient East,52.99183,-6.9857,British,Holiday Trips,0,Athea.Co..Kildare.
Irelands Ancient East,53.30434,-8.7502,British,Holiday Trips,0,Athenry.Co..Galway.
Irelands Ancient East,53.42393,-7.9407,British,Holiday Trips,851,Athlone.Co..Westmeath.
Irelands Ancient East,52.99183,-6.9857,British,Holiday Trips,0,Athy.Co..Kildare.
Irelands Ancient East,52.85593,-6.3259,British,Holiday Trips,2312,Aughrim.Co..Wicklow.
Irelands Ancient East,52.85796,-6.213,British,Holiday Trips,1993,Avoca.Co..Wicklow.
Irelands Ancient East,52.70311,-6.9559,British,Holiday Trips,0,Bagenalstown.Co..Carlow.
Irelands Ancient East,53.9017,-8.5792,British,Holiday Trips,0,Bailaghardereen.Co..Roscommon.
Irelands Ancient East,53.91561,-6.9693,British,Holiday Trips,0,Bailieborough.Co..Cavan.
Irelands Ancient East,53.60832,-6.1821,British,Holiday Trips,0,Balbriggan.Co..Dublin.
Dublin - Breath of Fresh Air,53.39867,-6.1273,British,Holiday Trips,0,Baldoyle.Co..Dublin.
Irelands Ancient East,53.83753,-8.3794,British,Holiday Trips,0,Ballangare.Co..Roscommon.
Irelands Ancient East,54.11495,-9.1551,British,Holiday Trips,936,Ballina.Co..Mayo.
Irelands Ancient East,53.32876,-8.2269,British,Holiday Trips,0,Ballinasloe.Co..Galway.
Irelands Ancient East,53.02514,-8.2208,British,Holiday Trips,0,Ballinderry.Co..Tipperary.
Irelands Ancient East,53.66926,-8.9567,British,Holiday Trips,0,Ballindine.Co..Mayo.
Irelands Ancient East,52.58766,-7.5471,British,Holiday Trips,0,Ballingarry.Co..Tipperary.
Irelands Ancient East,53.53295,-6.9681,British,Holiday Trips,0,Ballinivor.Co..Meath.
Irelands Ancient East,53.74189,-8.6336,British,Holiday Trips,0,Ballinlough.Co..Roscommon.
Irelands Ancient East,53.62373,-9.2211,British,Holiday Trips,0,Ballinrobe.Co..Mayo.
Wild Atlantic Way,51.8244,-10.273,British,Holiday Trips,0,Ballinskelligs.Co..Kerry
Dublin - Breath of Fresh Air,53.27673,-6.2554,British,Holiday Trips,0,Ballinteer.Co..Dublin.
Irelands Ancient East,54.20065,-8.365,British,Holiday Trips,0,Ballintogher.Co..Sligo.
Irelands Ancient East,54.57885,-8.1243,British,Holiday Trips,0,Ballintrae.Co..Donegal.
Irelands Ancient East,53.71809,-8.4101,British,Holiday Trips,0,Ballintubber.Co..Roscommon.
Irelands Ancient East,54.21085,-8.5068,British,Holiday Trips,0,Ballisodare.Co..Sligo.
Irelands Ancient East,54.12946,-6.9028,British,Holiday Trips,2528,Ballybay.Co..Monaghan.
Irelands Ancient East,54.79682,-7.7875,British,Holiday Trips,0,Ballybofey.Co..Donegal.
Irelands Ancient East,53.11539,-7.154,British,Holiday Trips,0,Ballybrittas.Co..Laois.
Wild Atlantic Way,52.51108,-9.671,British,Holiday Trips,0,Ballybunion.Co..Kerry.
Wild Atlantic Way,54.27967,-9.3725,British,Holiday Trips,0,Ballycastle.Co..Mayo.
Irelands Ancient East,54.11622,-7.584,British,Holiday Trips,0,Ballyconnell.Co..Cavan.
Irelands Ancient East,51.82992,-8.0098,British,Holiday Trips,0,Ballycotton.Co..Cork.
Irelands Ancient East,54.59066,-8.4221,British,Holiday Trips,0,Ballycory.Co..Donegal.
Irelands Ancient East,53.32642,-7.6861,British,Holiday Trips,0,Ballycumber.Co..Offaly.
Irelands Ancient East,52.06144,-9.135,British,Holiday Trips,0,Ballydally.Co..Cork.
Wild Atlantic Way,51.56301,-9.4554,British,Holiday Trips,2312,Ballydehob.Co..Cork.
Wild Atlantic Way,52.45455,-9.6629,British,Holiday Trips,0,Ballyduff.Co..Kerry.
Irelands Ancient East,52.1478,-8.0513,British,Holiday Trips,0,Ballyduff.Co..Waterford.
Irelands Ancient East,53.79234,-9.2178,British,Holiday Trips,0,Ballyfarna.Co..Mayo.
Wild Atlantic Way,52.163,-10.4229,British,Holiday Trips,0,Ballyferriter.Co..Kerry.
Irelands Ancient East,53.52256,-8.3257,British,Holiday Trips,0,Ballygar.Co..Galway.
Irelands Ancient East,52.55988,-9.1905,British,Holiday Trips,0,Ballyhahill.Co..Limerick.
Irelands Ancient East,53.76284,-8.7646,British,Holiday Trips,0,Ballyhaunis.Co..Mayo.
Wild Atlantic Way,52.39411,-9.8387,British,Holiday Trips,0,Ballyheigue.Co..Kerry.
Irelands Ancient East,53.86387,-7.2065,British,Holiday Trips,0,Ballyjamesduff.Co..Cavan.
Irelands Ancient East,52.37107,-8.346,British,Holiday Trips,0,Ballylanders.Co..Limerick.
Irelands Ancient East,51.72154,-9.4378,British,Holiday Trips,0,Ballylickey.Co..Cork.
Wild Atlantic Way,55.27844,-7.3942,British,Holiday Trips,0,Ballyliffen.Co..Donegal.
Wild Atlantic Way,52.548,-9.4788,British,Holiday Trips,0,Ballylongford.Co..Kerry.
Irelands Ancient East,53.56436,-7.7646,British,Holiday Trips,0,Ballymahon.Co..Longford.
Irelands Ancient East,53.69403,-8.4618,British,Holiday Trips,0,Ballymoe.Co..Galway.
Irelands Ancient East,52.68246,-6.2212,British,Holiday Trips,0,Ballymoney.Co..Wexford.
Wild Atlantic Way,52.27455,-10.1621,British,Holiday Trips,0,Ballymore.Co..Kerry.
Irelands Ancient East,53.49091,-7.6797,British,Holiday Trips,0,Ballymore.Co..Westmeath.
Irelands Ancient East,53.13301,-6.6149,British,Holiday Trips,2528,Ballymoreustace.Co..Kildare.
Irelands Ancient East,54.08983,-8.5172,British,Holiday Trips,0,Ballymote.Co.Sligo.
Wild Atlantic Way,51.73564,-8.9508,British,Holiday Trips,0,Ballyneen.Co..Cork.
Wild Atlantic Way,52.25798,-10.1628,British,Holiday Trips,0,Ballyquin.Co..Kerry.
Irelands Ancient East,52.78867,-7.3338,British,Holiday Trips,0,Ballyraggart.Co.Kilkenny.
Irelands Ancient East,54.50299,-8.192,British,Holiday Trips,0,Ballyshannon.Co..Donegal.
Irelands Ancient East,52.65558,-8.572,British,Holiday Trips,0,Ballysheedy.Co..Limerick.
Wild Atlantic Way,53.11553,-9.1494,British,Holiday Trips,936,Ballyvaughan.Co..Clare.
Irelands Ancient East,53.62462,-6.4793,British,Holiday Trips,0,Balrath.Co..Meath.
Wild Atlantic Way,51.48433,-9.3661,British,Holiday Trips,3163,Baltimore.Co..Cork.
Irelands Ancient East,52.94078,-6.711,British,Holiday Trips,0,Baltinglass.Co..Wicklow.
Irelands Ancient East,53.18646,-7.9954,British,Holiday Trips,0,Banagher.Co..Offaly.
Wild Atlantic Way,51.74612,-8.7318,British,Holiday Trips,0,Bandon.Co..Cork.
Irelands Ancient East,52.12832,-8.9073,British,Holiday Trips,0,Banteer.Co..Cork.
Irelands Ancient East,51.68089,-9.4486,British,Holiday Trips,7946,Bantry.Co..Cork.
Wild Atlantic Way,51.4698,-9.7812,British,Holiday Trips,0,Barleycove.Co..Cork.
Irelands Ancient East,54.12125,-7.6768,British,Holiday Trips,0,Bawnboy.Co..Cavan.
Irelands Ancient East,53.42426,-7.9656,British,Holiday Trips,0,Baylough.Co..Westmeath.
Wild Atlantic Way,51.7369,-8.4816,British,Holiday Trips,0,Belgooly.Co..Cork.
Wild Atlantic Way,54.2239,-9.9876,British,Holiday Trips,1666,Belmullet.Co..Mayo.
Irelands Ancient East,54.10191,-7.4497,British,Holiday Trips,0,Belturbet.Co..Cavan.
Wild Atlantic Way,51.63324,-9.8669,British,Holiday Trips,0,Bere.Island.Co..Cork.
Irelands Ancient East,53.09801,-7.9097,British,Holiday Trips,3821,Birr.Co..Offaly.
Irelands Ancient East,54.29206,-7.8751,British,Holiday Trips,0,Blacklion.Co..Cavan.
Dublin - Breath of Fresh Air,53.30079,-6.1771,British,Holiday Trips,730,Blackrock.Co..Dublin.
Irelands Ancient East,52.44735,-6.3469,British,Holiday Trips,0,Blackwater.Co..Wexford.
Irelands Ancient East,51.93436,-8.567,British,Holiday Trips,2431,Blarney.Co..Cork.
Irelands Ancient East,53.16966,-6.5341,British,Holiday Trips,2885,Blessington.Co..Wicklow.
Dublin - Breath of Fresh Air,53.30882,-6.1967,British,Holiday Trips,0,Booterstown.Co..Dublin.
Irelands Ancient East,52.93918,-7.6311,British,Holiday Trips,0,Borris-in-Ossary.Co..Laois.
Irelands Ancient East,52.99637,-8.1273,British,Holiday Trips,0,Borrisokane.Co.Tipperary.
Irelands Ancient East,53.97221,-8.2973,British,Holiday Trips,1453,Boyle.Co..Roscommon.
Dublin - Breath of Fresh Air,53.2009,-6.1111,British,Holiday Trips,10312,Bray.Co..Wicklow.
Irelands Ancient East,55.04224,-7.3822,British,Holiday Trips,0,Bridge.End.Co..Donegal.
Irelands Ancient East,52.88536,-6.062,British,Holiday Trips,0,Brittas.Bay.Co..Wicklow.
Irelands Ancient East,53.2279,-6.4476,British,Holiday Trips,0,Brittas.Co..Dublin.
Irelands Ancient East,52.80603,-8.6329,British,Holiday Trips,0,Broadford.Co..Clare.
Irelands Ancient East,52.21909,-6.3872,British,Holiday Trips,0,Broadway.Co..Wexford.
Irelands Ancient East,52.31271,-9.2707,British,Holiday Trips,0,Brosna.Co..Kerry.
Irelands Ancient East,52.47849,-8.5423,British,Holiday Trips,0,Bruff.Co..Limerick.
Irelands Ancient East,52.42429,-8.662,British,Holiday Trips,1453,Bruree.Co..Limerick.
Irelands Ancient East,52.65509,-6.6522,British,Holiday Trips,0,Bunclody.Co..Wexford.
Irelands Ancient East,55.13465,-7.4534,British,Holiday Trips,0,Buncrana.Co..Donegal.
Irelands Ancient East,54.47914,-8.2779,British,Holiday Trips,2398,Bundoran.Co..Donegal.
Irelands Ancient East,52.14055,-7.3652,British,Holiday Trips,0,Bunmahon.Co..Waterford.
Irelands Ancient East,52.69887,-8.8111,British,Holiday Trips,0,Bunratty.Co..Clare.
Irelands Ancient East,53.1486,-9.0741,British,Holiday Trips,0,Burren.Co.Clare
Irelands Ancient East,52.23213,-8.6701,British,Holiday Trips,2312,Buttevant.Co..Cork.
Irelands Ancient East,54.04521,-7.377,British,Holiday Trips,0,Buttlersbridge.Co..Cavan.
Dublin - Breath of Fresh Air,53.2637,-6.1663,British,Holiday Trips,0,Cabinteely.Co..Dublin.
Wild Atlantic Way,51.76901,-10.0995,British,Holiday Trips,936,Caherdaniel.Co..Kerry.
Irelands Ancient East,52.37453,-7.9252,British,Holiday Trips,0,Cahir.Co..Tipperary.
Wild Atlantic Way,51.9478,-10.2209,British,Holiday Trips,0,Cahirciveen.Co..Kerry.
Irelands Ancient East,52.54482,-7.392,British,Holiday Trips,0,Callan.Co..Kilkenny.
Irelands Ancient East,52.61568,-6.4263,British,Holiday Trips,0,Camolin.Co..Wexford.
Irelands Ancient East,52.14643,-7.8516,British,Holiday Trips,851,Cappaquinn.Co..Waterford.
Irelands Ancient East,54.04267,-6.187,British,Holiday Trips,0,Carlingford.Co..Louth.
Irelands Ancient East,52.83651,-6.9341,British,Holiday Trips,4838,Carlow.Co..Carlow.
Wild Atlantic Way,53.32422,-9.8361,British,Holiday Trips,0,Carna.Co..Galway.
Irelands Ancient East,52.70967,-6.4992,British,Holiday Trips,0,Carnew.Co..Wicklow.
Wild Atlantic Way,53.26411,-9.5983,British,Holiday Trips,0,Carraroe.Co..Galway.
Wild Atlantic Way,54.65772,-8.6327,British,Holiday Trips,0,Carrick.Co..Donegal.
Irelands Ancient East,53.94519,-8.0855,British,Holiday Trips,936,Carrick-on-Shannon.Co..Leitrim.
